customer_id,customer_code,customer_name,customer_type,business_reg_no,tax_id,contact_person,phone,email,line_id,website,billing_address,shipping_address,province,district,subdistrict,postal_code,latitude,longitude,delivery_instructions,preferred_delivery_time,channel_source,customer_segment,hub,status,created_by,remarks
B2205376,B2205376,102 เพ็ทสเตชั่น หัวหิน,PET SHOP,,,บุณยานุช นรมาตย์,,,,,42/98 ซ.หัวหิน 102 ต.หนองแก อ.หัวหิน จ.ประจวบคีรีขันธ์ 77110,42/98 ซ.หัวหิน 102 ต.หนองแก อ.หัวหิน จ.ประจวบคีรีขันธ์ 77110,ประจวบคีรีขันธ์,,,,12.5168149,99.9633588,,09.00-16.00,,,HUB ปราณบุรี,active,admin,
B2302004,B2302004,123 Shop บางกรวย,PET SHOP,,,ธันย์ชนก พรอำนวยทรัพย์,,,,,32/1 ม.6 ซ.นุ่มประสงค์3 ต.ศาลากลาง อ.บางกรวย จ.นนทบุรี,32/1 ม.6 ซ.นุ่มประสงค์3 ต.ศาลากลาง อ.บางกรวย จ.นนทบุรี,นนทบุรี,,,,13.8154418,100.3308855,,10.30-17.00,,,บางพลี,active,admin,ต้องมีเด็กติดรถ
B2205320,B2205320,13 เพ็ทช็อป,PET SHOP,,,บุณยานุช นรมาตย์,,,,,57 ถ.ประชาวิถี ต.โคกสำโรง อ.โคกสำโรง จ.ลพบุรี,57 ถ.ประชาวิถี ต.โคกสำโรง อ.โคกสำโรง จ.ลพบุรี,ลพบุรี,,,,15.0660307,100.7203586,,,,,HUB อยุธยา,active,admin,
B2406031,B2406031,15 Petshop,PET SHOP,,,จุฑาภรณ์ กรรธิภากร,,,,,142-144 ถ.จรดวิถีถ่อง ต.ธานี อ.เมืองสุโขทัย จ.สุโขทัย 64000,142-144 ถ.จรดวิถีถ่อง ต.ธานี อ.เมืองสุโขทัย จ.สุโขทัย 64000,สุโขทัย,,,,17.0089975,99.8091923,,09.00-18.00,,,"HUB พิษณุโลก	",active,admin,
B2210070,B2210070,168 เพ็ทช็อป สาขา ประชาอุทิศ 90,PET SHOP,,,ศรัณยา ธรรมเที่ยง,,,,,1/22-23 ซ.ประชาอุทิศ 90 ต.ทุ่งครุ อ.ทุ่งครุ จ.สมุทรปราการ,1/22-23 ซ.ประชาอุทิศ 90 ต.ทุ่งครุ อ.ทุ่งครุ จ.สมุทรปราการ,สมุทรปราการ,,,,13.5994893,100.5066029,,09.00-20.00,,,,active,admin,
B2301028,B2301028,1688 เพ็ทช็อบ สมุทรปราการ,PET SHOP,,,ศรัณยา ธรรมเที่ยง,,,,,289/33 ม.2 ต.ปากคลองบางปลากด อ.พระสมุทรเจดีย์ จ.สมุทรปราการ 10290,289/33 ม.2 ต.ปากคลองบางปลากด อ.พระสมุทรเจดีย์ จ.สมุทรปราการ 10290,สมุทรปราการ,,,,13.5983927,100.5665762,,10.00-16.00,,,,active,admin,
B2205351,B2205351,1688 เพ็ทช็อป,PET SHOP,,,บุณยานุช นรมาตย์,,,,,33/8 ม.4 ต.นาดี อ.เมือง จ.สมุทรสาคร 74000,33/8 ม.4 ต.นาดี อ.เมือง จ.สมุทรสาคร 74000,สมุทรสาคร,,,,13.5984793,100.3089904,,,,,DC บางพลี,active,admin,
B2309014,B2309014,22 pet shop,PET SHOP,,,ณัฐชยา ศิริเธียรไชย,,,,,376-380 ถ.สันติภาพ แขวงป้อมปราบ เขตป้อมปราบศัตรูพ่าย จ.กรุงเทพฯ 10100,376-380 ถ.สันติภาพ แขวงป้อมปราบ เขตป้อมปราบศัตรูพ่าย จ.กรุงเทพฯ 10100,กรุงเทพฯ,,,,13.742223,100.5124399,,11.00-16.00,,,,active,admin,
B2211059,B2211059,42 Pets shop,PET SHOP,,,บุณยานุช นรมาตย์,,,,,56/314-315 ม.7 ต.พันท้ายนรสิงห์ อ.เมืองสมุทรสาคร จ.สมุทรสาคร 74000,56/314-315 ม.7 ต.พันท้ายนรสิงห์ อ.เมืองสมุทรสาคร จ.สมุทรสาคร 74000,สมุทรสาคร,,,,13.5871012,100.3684838,,10.00-17.00,,,DC บางพลี,active,admin,
B2205697,B2205697,789 เพ็ท เฮ้าส์,PET SHOP,,,อรุณวดี กุลจรัสเดโช,,,,,789/2 ม.1 ต.ปลวกแดง อ.ปลวกแดง จ.ระยอง,789/2 ม.1 ต.ปลวกแดง อ.ปลวกแดง จ.ระยอง,ระยอง,,,,13.0154619,101.1536286,,10.00-17.00,,,"HUB บางละมุง	",active,admin,
B2205637,B2205637,8 Riew Pet Shop,PET SHOP,,,อรุณวดี กุลจรัสเดโช,,,,,59/5 ม.8 ต.คลองหลวงแพ่ง อ.เมือง จ.ฉะเชิงเทรา,59/5 ม.8 ต.คลองหลวงแพ่ง อ.เมือง จ.ฉะเชิงเทรา,ฉะเชิงเทรา,,,,13.8312541,100.8565826,,10.00-16.00,,,DC บางพลี,active,admin,
B2205197,B2205197,86 บ้านอาหารสัตว์,PET SHOP,,,เมธาวี แย้มเมืองไชย,,,,,50/1852 ม.5 ต.บางคูรัด อ.บางบัวทอง จ.นนทบุรี 11110,50/1852 ม.5 ต.บางคูรัด อ.บางบัวทอง จ.นนทบุรี 11110,นนทบุรี,,,,13.8362261,100.3406895,,10.00-16.00,,,DC บางพลี,active,admin,
B2209003,B2209003,91 Pet Shop (สินค้าคนรักสัตว์),PET SHOP,,,ณัฐชยา ศิริเธียรไชย,,,,,22 ซ.กรุงเทพกรีฑา 15 แยก 4 (สุเหร่าวังใหญ่) แขวงหัวหมาก เขตบางกะปิ จ.กรุงเทพฯ 10240,22 ซ.กรุงเทพกรีฑา 15 แยก 4 (สุเหร่าวังใหญ่) แขวงหัวหมาก เขตบางกะปิ จ.กรุงเทพฯ 10240,กรุงเทพฯ,,,,13.7493106,100.6744147,,10.00-16.00,,,,active,admin,
B2501011,B2501011,97 ไลค์ เพ็ทช็อป,PET SHOP,,,ณัฐชยา ศิริเธียรไชย,,,,,439-441 ตึกสีเขียวริมถนน 2 ห้อง ตรงข้ามซอยเจริญรัถ 16 ถ.เจริญรัถ แขวงคลองสาน เขตคลองสาน จ.กรุงเทพฯ 10600,439-441 ตึกสีเขียวริมถนน 2 ห้อง ตรงข้ามซอยเจริญรัถ 16 ถ.เจริญรัถ แขวงคลองสาน เขตคลองสาน จ.กรุงเทพฯ 10600,กรุงเทพฯ,,,,13.7268841,100.5010256,,,,,,active,admin,
B2506001,B2506001,AF Pets Friend,PET SHOP,,,ชาตรี ไข่แก้ว,,,,,286/4 ม.3 ต.ท่าประจะ อ.ชะอวด จ.นครศรีธรรมราช 80180,286/4 ม.3 ต.ท่าประจะ อ.ชะอวด จ.นครศรีธรรมราช 80180,นครศรีธรรมราช,,,,,,,,,,,active,admin,
B2501012,B2501012,AYA Pet shop,PET SHOP,,,บริษัท,,,,,ตลาดโรงเกลือ งองู1 ไปรษณีย์เก่า ต.ป่าไร อ.อรัญประเทศ จ.สระแก้ว,ตลาดโรงเกลือ งองู1 ไปรษณีย์เก่า ต.ป่าไร อ.อรัญประเทศ จ.สระแก้ว,สระแก้ว,,,,,,,,,,,active,admin,"20,000 บาท/บิล / สั่งซื้อครบ 30,000 บาท ได้ส่วนลดเงินสด 2%"
B2507004,B2507004,Anymals Petshop (เอนี่มอล เพ็ทช็อป),PET SHOP,,,ณัฐชยา ศิริเธียรไชย,,,,,659/18 ซ.สาธุประดิษฐ์ 51 ถ.สาธุประดิษฐ์ แขวงบางโพงพาง เขตยานนาวา กรุงเทพฯ 10120,659/18 ซ.สาธุประดิษฐ์ 51 ถ.สาธุประดิษฐ์ แขวงบางโพงพาง เขตยานนาวา กรุงเทพฯ 10120,กรุงเทพฯ,,,,,,,,,,,active,admin,
B2504001,B2504001,August Farm (ออกัส ฟาร์ม),FARM,,,บริษัท,,,,,999/75 หมู่บ้านศุภาลัย พาร์ควิลล์ พัทยา-สุขุมวิท ซ.3 ทุ่งกลม-ตาลหมัน เมืองพัทยา อ.บางละมุง จ.ชลบุรี 20150,999/75 หมู่บ้านศุภาลัย พาร์ควิลล์ พัทยา-สุขุมวิท ซ.3 ทุ่งกลม-ตาลหมัน เมืองพัทยา อ.บางละมุง จ.ชลบุรี 20150,ชลบุรี,,,,,,,,,,,active,admin,
B0000010,B0000010,BKK01,PET SHOP,,,ธันย์ชนก พรอำนวยทรัพย์,,,,,-,-,กรุงเทพฯ,,,,,,,,,,,active,admin,
B0000012,B0000012,BKK03,PET SHOP,,,เพ็ญพลอย อิ่มดี,,,,,-,-,กรุงเทพฯ,,,,,,,,,,,active,admin,
B0000013,B0000013,BKK04,PET SHOP,,,ศรัณยา ธรรมเที่ยง,,,,,-,-,กรุงเทพฯ,,,,,,,,,,,active,admin,
B0000014,B0000014,BKK05,PET SHOP,,,เมธาวี แย้มเมืองไชย,,,,,-,-,กรุงเทพฯ,,,,,,,,,,,active,admin,
B0000015,B0000015,BKK06,PET SHOP,,,ณัฐชยา ศิริเธียรไชย,,,,,-,-,กรุงเทพฯ,,,,,,,,,,,active,admin,
B2302033,B2302033,BONBON PETSHOP,PET SHOP,,,ณิชากร อ่อนเทศ,,,,,189/13 ม.1 ต.บางขะแยง อ.เมืองปทุมธานี จ.ปทุมธานี,189/13 ม.1 ต.บางขะแยง อ.เมืองปทุมธานี จ.ปทุมธานี,ปทุมธานี,,,,13.9681388,100.5231891,,,,,DC บางพลี,active,admin,
B2308001,B2308001,Baboo pet shop (บาบู เพ็ทช็อป),PET SHOP,,,ณัฐชยา ศิริเธียรไชย,,,,,13/1 ตลาดต้นไทร ล็อค 6 แขวงลาดกระบัง เขตลาดกระบัง จ.กรุงเทพฯ 10520,13/1 ตลาดต้นไทร ล็อค 6 แขวงลาดกระบัง เขตลาดกระบัง จ.กรุงเทพฯ 10520,กรุงเทพฯ,,,,13.721166,100.7740316,,10.00-16.00,,,,active,admin,
B2308023,B2308023,Bangkokcats (บางกอกแคท),FARM,,,บริษัท,,,,,30 ถ.จรดวิถีถ่อง ต.ทับผึ้ง อ.ศรีสำโรง จ.สุโขทัย 64120,30 ถ.จรดวิถีถ่อง ต.ทับผึ้ง อ.ศรีสำโรง จ.สุโขทัย 64120,สุโขทัย,,,,17.008547,99.8091642,,,,,"HUB พิษณุโลก	",active,admin,
B2210033,B2210033,Berry Pet,PET SHOP,,,ณิชากร อ่อนเทศ,,,,,456/65 ถ.สุขาภิบาล 5 แขวงออเงิน เขตสายไหม จ.กรุงเทพฯ,456/65 ถ.สุขาภิบาล 5 แขวงออเงิน เขตสายไหม จ.กรุงเทพฯ,กรุงเทพฯ,,,,13.904725,100.6750671,,10.00-17.00,,,,active,admin,
B2205589,B2205589,Best Friend Pet Shop (เบสท์เฟรนด์เพ็ทช็อป),PET SHOP,,,ชาตรี ไข่แก้ว,,,,,47 ถ.ศุภโชคพัฒนา ม.1 ต.สิชล อ.สิชล จ.นครศรีธรรมราช,47 ถ.ศุภโชคพัฒนา ม.1 ต.สิชล อ.สิชล จ.นครศรีธรรมราช,นครศรีธรรมราช,,,,9.0088977,99.9089774,,,,,HUB ทุ่งสง,active,admin,
B2303021,B2303021,Bkk petmart,PET SHOP,,,ณิชากร อ่อนเทศ,,,,,138 ถ.ไทยรามัญ แขวงสามวาตะวันตก เขตคลองสามวา จ.กรุงเทพฯ 10510,138 ถ.ไทยรามัญ แขวงสามวาตะวันตก เขตคลองสามวา จ.กรุงเทพฯ 10510,กรุงเทพฯ,,,,13.8941555,100.7032696,,10.00-17.00,,,,active,admin,
B2205477,B2205477,Browney Pet World,PET SHOP,,,นันท์ธนัษฐ์ ยะวรรณ,,,,,358/9 ม.6 ต.ริมกก อ.เมือง จ.เชียงราย,358/9 ม.6 ต.ริมกก อ.เมือง จ.เชียงราย,เชียงราย,,,,19.9272529,99.8616275,,09.00-17.00,,,สาย เชียงราย,active,admin,
B2211009,B2211009,Browney Pet World สาขา ป่อก่อ,PET SHOP,,,นันท์ธนัษฐ์ ยะวรรณ,,,,,193 ม.26 อ.รอบเวียง จ.เชียงราย 57000,193 ม.26 อ.รอบเวียง จ.เชียงราย 57000,เชียงราย,,,,19.8979703,99.8180732,,09.00-18.00,,,สาย เชียงราย,active,admin,
B2211010,B2211010,Browney Pet World สาขา หน้า ม.พะเยา,PET SHOP,,,นันท์ธนัษฐ์ ยะวรรณ,,,,,91 ต.แม่กา อ.เมืองพะเยา จ.พะเยา 56000,91 ต.แม่กา อ.เมืองพะเยา จ.พะเยา 56000,พะเยา,,,,19.030724,99.9263304,,09.00-18.00,,,HUB ลำปาง,active,admin,
B2211011,B2211011,Browney pet world สาขา แม่สาย,PET SHOP,,,นันท์ธนัษฐ์ ยะวรรณ,,,,,358/9 ม.6 ถ.พหลโยธิน ต.ริมกก อ.เมือง จ.เชียงราย 5700,358/9 ม.6 ถ.พหลโยธิน ต.ริมกก อ.เมือง จ.เชียงราย 5700,เชียงราย,,,,19.9385674,99.8452128,,09.00-18.00,,,สาย เชียงราย,active,admin,
B2205131,B2205131,Buddy Pet Shop & Groming,PET SHOP,,,ณัฐชยา ศิริเธียรไชย,,,,,29/61 ปากซอยลาดปลาเค้า1 ถ.ลาดปลาเค้า แขวงลาดพร้าว เขตลาดพร้าว จ.กรุงเทพฯ 10230,29/61 ปากซอยลาดปลาเค้า1 ถ.ลาดปลาเค้า แขวงลาดพร้าว เขตลาดพร้าว จ.กรุงเทพฯ 10230,กรุงเทพฯ,,,,13.8325866,100.5909503,,10.00-17.00,,,,active,admin,
B2310004,B2310004,Buddy Trio International,PET SHOP,,,นฤทัย สุโพเคน,,,,,โกดัง ห้อง G-C18 66/47 ถ.โชติเวช ต.ลาดสวาย อ.ลำลูกกา จ.ปทุมธานี 12150,โกดัง ห้อง G-C18 66/47 ถ.โชติเวช ต.ลาดสวาย อ.ลำลูกกา จ.ปทุมธานี 12150,ปทุมธานี,,,,13.9612292,100.6735765,,10.00-17.00,,,DC บางพลี,active,admin,ต้องมีเด็กติดรถ
B0000008,B0000008,Buzz Online,PET SHOP,,,บริษัท,,,,,"เลขที่ 350,352 ถ.อุดมสุข แขวงบางนา
เขตบางนา จ.กรุงเทพฯ 10260","เลขที่ 350,352 ถ.อุดมสุข แขวงบางนา
เขตบางนา จ.กรุงเทพฯ 10260",กรุงเทพฯ,,,,13.678037,100.6435403,,,,,,active,admin,
B0000025,B0000025,Buzz Operation,OTHERS,,,บริษัท,,,,,"350, 352 ถนนอุดมสุข แขวงบางนาเหนือ เขตบางนา กทม. 10260","350, 352 ถนนอุดมสุข แขวงบางนาเหนือ เขตบางนา กทม. 10260",-,,,,,,,,,,,active,admin,
B2409020,B2409020,CHW Pet Shop,PET SHOP,,,บุณยานุช นรมาตย์,,,,,167/1 (คลังสินค้า) ถ.พุทธมณฑลสาย4 ต.กระทุ่มล้ม อ.สามพราน จ.นครปฐม 73220,167/1 (คลังสินค้า) ถ.พุทธมณฑลสาย4 ต.กระทุ่มล้ม อ.สามพราน จ.นครปฐม 73220,นครปฐม,,,,13.7455712,100.326162,,10.00-17.00,,,DC บางพลี,active,admin,
B2210072,B2210072,Cafina Pet Wellness Center,PET SHOP,,,ณิชากร อ่อนเทศ,,,,,"21 โครงการ The Platinum Place วัชรพล
ถ.วัชรพล แขวงท่าแร้ง เขตบางเขน จ.กรุงเทพฯ","21 โครงการ The Platinum Place วัชรพล
ถ.วัชรพล แขวงท่าแร้ง เขตบางเขน จ.กรุงเทพฯ",กรุงเทพฯ,,,,13.8559603,100.6409311,,10.00-17.00,,,,active,admin,
B2311021,B2311021,Catper Petshop (แคทเปอร์ เพ็ทช้อป),PET SHOP,,,อรุณวดี กุลจรัสเดโช,,,,,165/1 ม.5 ต.สัตหีบ อ.สัตหีบ จ.ชลบุรี,165/1 ม.5 ต.สัตหีบ อ.สัตหีบ จ.ชลบุรี,ชลบุรี,,,,12.6682601,100.9365089,,10.00-17.00,,,"HUB บางละมุง	",active,admin,
B2306030,B2306030,Caturday Family,PET SHOP,,,บริษัท,,,,,11 ซ.โชคชัย 4 ซ. 34 ถ.โชคชัย 4 แขวงลาดพร้าว เขตลาดพร้าว จ.กรุงเทพฯ 10230,11 ซ.โชคชัย 4 ซ. 34 ถ.โชคชัย 4 แขวงลาดพร้าว เขตลาดพร้าว จ.กรุงเทพฯ 10230,กรุงเทพฯ,,,,13.8103119,100.5967814,,11.00-17.00,,,,active,admin,"สั่งซื้อ 10,000 บาท ขึ้นไป ต่อการสั่งซื้อ"
B0000017,B0000017,Central,PET SHOP,,,บุณยานุช นรมาตย์,,,,,-,-,กรุงเทพฯ,,,,,,,,,,,active,admin,
B2304012,B2304012,Chadummm Petshop,PET SHOP,,,บริษัท,,,,,12/1 หมู่ 8 ต.บางน้ำเปรี้ยว อ.บางน้ำเปรี้ยว จ.ฉะเชิงเทรา 21450,12/1 หมู่ 8 ต.บางน้ำเปรี้ยว อ.บางน้ำเปรี้ยว จ.ฉะเชิงเทรา 21450,ฉะเชิงเทรา,,,,13.8488372,100.9433643,,,,,DC บางพลี,active,admin,"สั่งซื้อครบ 30,000 บาทได้ส่วนลด 2%"
B2508010,B2508010,Chocadoof สาขา Yes บางพลี,PET SHOP,,,ศรัณยา ธรรมเที่ยง,,,,,98/3-4 ม.1 ถ.เทพารักษ์ ต.บางเสาธง อ.บางเสาธง จ.สมุทรปราการ,98/3-4 ม.1 ถ.เทพารักษ์ ต.บางเสาธง อ.บางเสาธง จ.สมุทรปราการ,สมุทรปราการ,,,,,,,,,,,active,admin,
B2205211,B2205211,Chocadoof สาขา กรุงเทพกรีฑา,PET SHOP,,,ศรัณยา ธรรมเที่ยง,,,,,87/2 ซ.กรุงเทพกรีฑา 15 ถ.กรุงเทพกรีฑา แขวงหัวหมาก เขตบางกะปิ จ.กรุงเทพฯ,87/2 ซ.กรุงเทพกรีฑา 15 ถ.กรุงเทพกรีฑา แขวงหัวหมาก เขตบางกะปิ จ.กรุงเทพฯ,กรุงเทพฯ,,,,13.7461561,100.6688733,,10.00-17.00,,,,active,admin,
B2205212,B2205212,Chocadoof สาขา กิ่งแก้ว,PET SHOP,,,ศรัณยา ธรรมเที่ยง,,,,,25/43 ม.13 ต.ราชาเทวะ อ.บางพลี จ.สมุทรปราการ,25/43 ม.13 ต.ราชาเทวะ อ.บางพลี จ.สมุทรปราการ,สมุทรปราการ,,,,13.6975027,100.7130193,,10.00-17.00,,,,active,admin,
B2312006,B2312006,Chocadoof สาขา คลองหลวง-คลองสาม,PET SHOP,,,ศรัณยา ธรรมเที่ยง,,,,,9 ม.3 ต.คลองสาม อ.คลองหลวง จ.ปทุมธานี,9 ม.3 ต.คลองสาม อ.คลองหลวง จ.ปทุมธานี,ปทุมธานี,,,,14.0457426,100.6590045,,10.00-17.00,,,DC บางพลี,active,admin,
B2205210,B2205210,Chocadoof สาขา งามวงศ์วาน,PET SHOP,,,ศรัณยา ธรรมเที่ยง,,,,,418/2 ตลาดงามวงศ์วาน ถ.สามัคคี ต.ท่าทราย อ.เมือง จ.นนทบุรี,418/2 ตลาดงามวงศ์วาน ถ.สามัคคี ต.ท่าทราย อ.เมือง จ.นนทบุรี,นนทบุรี,,,,13.8812526,100.5377203,,10.00-17.00,,,DC บางพลี,active,admin,
B2307014,B2307014,Chocadoof สาขา ตลาดกิเลน,PET SHOP,,,ศรัณยา ธรรมเที่ยง,,,,,166/8 หมู่ 6 ต.ศาลากลาง อ.บางกรวย จ.นนทบุรี 11130,166/8 หมู่ 6 ต.ศาลากลาง อ.บางกรวย จ.นนทบุรี 11130,นนทบุรี,,,,13.8289583,100.3997542,,10.00-17.00,,,,active,admin,
B2301034,B2301034,Chocadoof สาขา ตลาดรังสิต,PET SHOP,,,ศรัณยา ธรรมเที่ยง,,,,,93 ถ.รังสิต-ปทุมธานี ต.ประชาธิปัตย์ อ.ธัญบุรี จ.ปทุมธานี,93 ถ.รังสิต-ปทุมธานี ต.ประชาธิปัตย์ อ.ธัญบุรี จ.ปทุมธานี,ปทุมธานี,,,,13.9873759,100.611811,,10.00-17.00,,,DC บางพลี,active,admin,
B2505054,B2505054,Chocadoof สาขา ตลาดลุงออม,PET SHOP,,,ศรัณยา ธรรมเที่ยง,,,,,168 ซ.วัดส้มเกลี้ยง ม.1 ถ.บรมราชชนนี ต.ศาลากลาง อ.บางกรวย จ.นนทบุรี,168 ซ.วัดส้มเกลี้ยง ม.1 ถ.บรมราชชนนี ต.ศาลากลาง อ.บางกรวย จ.นนทบุรี,นนทบุรี,,,,13.875593,100.5360971,,,,,,active,admin,
B2409005,B2409005,Chocadoof สาขา ทุ่งครุ,PET SHOP,,,ศรัณยา ธรรมเที่ยง,,,,,เลขที่ 356 ถ.ประชาอุทิศ แขวงทุ่งครุ เขตทุ่งครุ จ.กรุงเทพฯ 10140,เลขที่ 356 ถ.ประชาอุทิศ แขวงทุ่งครุ เขตทุ่งครุ จ.กรุงเทพฯ 10140,กรุงเทพฯ,,,,13.6271361,100.5045409,,10.00-17.00,,,,active,admin,
B2205214,B2205214,Chocadoof สาขา บางคูวัด,PET SHOP,,,ศรัณยา ธรรมเที่ยง,,,,,99/21 ม.1 ต.บางคูวัด อ.เมืองปทุมธานี จ.ปทุมธานี 12000,99/21 ม.1 ต.บางคูวัด อ.เมืองปทุมธานี จ.ปทุมธานี 12000,ปทุมธานี,,,,13.9579361,100.520125,,10.00-17.00,,,DC บางพลี,active,admin,
B2205222,B2205222,Chocadoof สาขา บางบัวทอง,PET SHOP,,,ศรัณยา ธรรมเที่ยง,,,,,78/12 ม.3 ต.บางรักพัฒนา อ.บางบัวทอง จ.นนทบุรี,78/12 ม.3 ต.บางรักพัฒนา อ.บางบัวทอง จ.นนทบุรี,นนทบุรี,,,,13.888248,100.4024636,,10.00-17.00,,,DC บางพลี,active,admin,
B2205219,B2205219,Chocadoof สาขา บางบัวทอง-สุพรรณบุรี,PET SHOP,,,ศรัณยา ธรรมเที่ยง,,,,,78/2 ปั๊ม PT แยกบางพลู สาขาบางบัวทอง ถ.บางกรวย-ทรายทอง ต.บางรักพัฒนา อ.บางบัวทอง จ.นนทบุรี 11110,78/2 ปั๊ม PT แยกบางพลู สาขาบางบัวทอง ถ.บางกรวย-ทรายทอง ต.บางรักพัฒนา อ.บางบัวทอง จ.นนทบุรี 11110,นนทบุรี,,,,13.9124233,100.4248629,,10.00-17.00,,,DC บางพลี,active,admin,
B2205218,B2205218,Chocadoof สาขา บางพลี,PET SHOP,,,ศรัณยา ธรรมเที่ยง,,,,,98/3-4 ม.1 ปั๊มบางจากตรงข้าม Yes บางพลี ถ.เทพารักษ์ ต.บางเสาธง อ.บางเสาธง จ.สมุทรปราการ 10570,98/3-4 ม.1 ปั๊มบางจากตรงข้าม Yes บางพลี ถ.เทพารักษ์ ต.บางเสาธง อ.บางเสาธง จ.สมุทรปราการ 10570,สมุทรปราการ,,,,13.5852389,100.7939638,,10.00-17.00,,,,active,admin,
B2508003,B2508003,Chocadoof สาขา บางยี่โถ,PET SHOP,,,ศรัณยา ธรรมเที่ยง,,,,,148 (ห้อง 2-4) ซ.รังสิต-นครนายก ม.1 ต.บึงยี่โถ อ.ธัญบุรี จ.ปทุมธานี 12130,148 (ห้อง 2-4) ซ.รังสิต-นครนายก ม.1 ต.บึงยี่โถ อ.ธัญบุรี จ.ปทุมธานี 12130,ปทุมธานี,,,,,,,,,,,active,admin,
B2205213,B2205213,Chocadoof สาขา ปทุมชวนชื่น,PET SHOP,,,ศรัณยา ธรรมเที่ยง,,,,,97 ม.5 ต.บางเดื่อ อ.เมืองปทุมธานี จ.ปทุมธานี,97 ม.5 ต.บางเดื่อ อ.เมืองปทุมธานี จ.ปทุมธานี,ปทุมธานี,,,,13.986077,100.5146164,,10.00-17.00,,,DC บางพลี,active,admin,
B2411031,B2411031,Chocadoof สาขา ประชาอุทิศ55,PET SHOP,,,ศรัณยา ธรรมเที่ยง,,,,,349 ปั้มบางจากปากซอยประชาอุทิศ 55 แขวงบางมด เขตทุ่งครุ จ.กรุงเทพฯ 10140,349 ปั้มบางจากปากซอยประชาอุทิศ 55 แขวงบางมด เขตทุ่งครุ จ.กรุงเทพฯ 10140,กรุงเทพฯ,,,,13.6462748,100.4977881,,,,,,active,admin,
B2205217,B2205217,Chocadoof สาขา ปากน้ำ,PET SHOP,,,ศรัณยา ธรรมเที่ยง,,,,,125 ถ.สุขุมวิท ต.ปากน้ำ อ.เมือง จ.สมุทรปราการ 10270,125 ถ.สุขุมวิท ต.ปากน้ำ อ.เมือง จ.สมุทรปราการ 10270,สมุทรปราการ,,,,13.6069896,100.5957287,,10.00-17.00,,,,active,admin,
B2412002,B2412002,Chocadoof สาขา พัฒนาการ,PET SHOP,,,ศรัณยา ธรรมเที่ยง,,,,,2990 ถ.พัฒนาการ แขวงสวนหลวง เขตสวนหลวง จ.กรุงเทพฯ 10250,2990 ถ.พัฒนาการ แขวงสวนหลวง เขตสวนหลวง จ.กรุงเทพฯ 10250,นนทบุรี,,,,13.7316449,100.6496048,,,,,,active,admin,
B2301018,B2301018,Chocadoof สาขา มหาดไทย,PET SHOP,,,ศรัณยา ธรรมเที่ยง,,,,,223 ซ.ลาดพร้าว122 แขวงพลับพลา เขตวังทองหลาง จ.กรุงเทพฯ,223 ซ.ลาดพร้าว122 แขวงพลับพลา เขตวังทองหลาง จ.กรุงเทพฯ,กรุงเทพฯ,,,,13.7729007,100.6220948,,10.00-17.00,,,,active,admin,
B2304001,B2304001,Chocadoof สาขา รังสิต,PET SHOP,,,ศรัณยา ธรรมเที่ยง,,,,,54 ต.คลองหนึ่ง อ.เมืองปทุมธานี จ.ปทุมธานี 12020,54 ต.คลองหนึ่ง อ.เมืองปทุมธานี จ.ปทุมธานี 12020,ปทุมธานี,,,,14.0636691,100.6173324,,10.00-17.00,,,DC บางพลี,active,admin,
B2205215,B2205215,Chocadoof สาขา รามอินทรา,PET SHOP,,,ศรัณยา ธรรมเที่ยง,,,,,581 ถ.รามอินทรา แขวงรามอินทรา เขตคันนายาว จ.กรุงเทพฯ,581 ถ.รามอินทรา แขวงรามอินทรา เขตคันนายาว จ.กรุงเทพฯ,กรุงเทพฯ,,,,13.8463982,100.6483048,,10.00-17.00,,,,active,admin,
B2308010,B2308010,Chocadoof สาขา รามอินทรา-ลาดปลาเค้า,PET SHOP,,,ศรัณยา ธรรมเที่ยง,,,,,6/39 ซ.รามอินทรา แขวงอนุสาวรีย์ เขตบางเขน จ.กรุงเทพฯ 10220,6/39 ซ.รามอินทรา แขวงอนุสาวรีย์ เขตบางเขน จ.กรุงเทพฯ 10220,กรุงเทพฯ,,,,13.8725867,100.6032359,,10.00-17.00,,,,active,admin,
B2310011,B2310011,Chocadoof สาขา วังทองหลาง,PET SHOP,,,ศรัณยา ธรรมเที่ยง,,,,,585 ซ.รามคำแหง39 (ซอยเทพลีลา1) แขวงวังทองหลาง เขตวังทองหลาง จ.กรุงเทพฯ,585 ซ.รามคำแหง39 (ซอยเทพลีลา1) แขวงวังทองหลาง เขตวังทองหลาง จ.กรุงเทพฯ,กรุงเทพฯ,,,,13.7585334,100.614398,,10.00-17.00,,,,active,admin,
B2506011,B2506011,Chocadoof สาขา วัดลาดปลาเค้า,PET SHOP,,,ศรัณยา ธรรมเที่ยง,,,,,462 ถ.ลาดปลาเค้า แขวงจรเข้บัว เขตลาดพร้าว จ.กรุงเทพฯ 10230,462 ถ.ลาดปลาเค้า แขวงจรเข้บัว เขตลาดพร้าว จ.กรุงเทพฯ 10230,กรุงเทพฯ,,,,,,,,,,,active,admin,
B2305029,B2305029,Chocadoof สาขา สะแกงาม,PET SHOP,,,ศรัณยา ธรรมเที่ยง,,,,,93/17 ถ.กาญจนาภิเษก แขวงแสมดำ เขตบางขุนเทียน จ.กรุงเทพฯ,93/17 ถ.กาญจนาภิเษก แขวงแสมดำ เขตบางขุนเทียน จ.กรุงเทพฯ,กรุงเทพฯ,,,,13.6278934,100.422823,,10.00-17.00,,,,active,admin,
B2305003,B2305003,Chocadoof สาขา สายไหม-เทพรักษ์,PET SHOP,,,ศรัณยา ธรรมเที่ยง,,,,,191 ถ.เทพรักษ์ แขวงท่าแร้ง เขตบางเขน จ.กรุงเทพฯ 10220,191 ถ.เทพรักษ์ แขวงท่าแร้ง เขตบางเขน จ.กรุงเทพฯ 10220,กรุงเทพฯ,,,,13.8813371,100.6264782,,10.00-17.00,,,,active,admin,
B2205216,B2205216,Chocadoof สาขา หอการค้า,PET SHOP,,,ศรัณยา ธรรมเที่ยง,,,,,258 ซ.ประชาสงเคราะห์ 27 แขวงดินแดง เขตดินแดง จ.กรุงเทพฯ 10400,258 ซ.ประชาสงเคราะห์ 27 แขวงดินแดง เขตดินแดง จ.กรุงเทพฯ 10400,กรุงเทพฯ,,,,13.7778196,100.5615578,,10.00-17.00,,,,active,admin,
B2411001,B2411001,Chocadoof สาขา เทพารักษ์ กม.11,PET SHOP,,,ศรัณยา ธรรมเที่ยง,,,,,72 ม.4 ปั๊มน้ำมันบางจาก สาขาเทพารักษ์ กม.11 อ.บางพลี ต.บางพลีใหญ่ สมุทรปาการ 10540,72 ม.4 ปั๊มน้ำมันบางจาก สาขาเทพารักษ์ กม.11 อ.บางพลี ต.บางพลีใหญ่ สมุทรปาการ 10540,กรุงเทพฯ,,,,13.6017719,100.6985155,,,,,,active,admin,
B2407007,B2407007,Chocadoof สาขา เพชรเกษม 39,PET SHOP,,,ศรัณยา ธรรมเที่ยง,,,,,705 (ปั้มบางจาก) ถ.เพชรเกษม แขวงบางหว้า เขตภาษีเจริญ จ.กรุงเทพฯ,705 (ปั้มบางจาก) ถ.เพชรเกษม แขวงบางหว้า เขตภาษีเจริญ จ.กรุงเทพฯ,กรุงเทพฯ,,,,13.7905598,100.4471306,,10.00-17.00,,,,active,admin,
B2505023,B2505023,Chocadoof สาขา แจ้งวัฒนะ,PET SHOP,,,ศรัณยา ธรรมเที่ยง,,,,,53/4 ม.8 ต.บางตลาด อ.ปากเกร็ด จ.นนทบุรี 11120,53/4 ม.8 ต.บางตลาด อ.ปากเกร็ด จ.นนทบุรี 11120,นนทบุรี,,,,13.8971929,100.5269968,,,,,,active,admin,
B2205698,B2205698,Dog Club,PET SHOP,,,อรุณวดี กุลจรัสเดโช,,,,,338/3 ถ.สุขุมวิท ต.เนินพระ อ.เมือง จ.ระยอง,338/3 ถ.สุขุมวิท ต.เนินพระ อ.เมือง จ.ระยอง,ระยอง,,,,12.6826268,101.2655549,,10.00-16.00,,,"HUB บางละมุง	",active,admin,ส่วนลดค้าส่ง 2%
B2305030,B2305030,Dog Club (คลังปทุมธานี),PET SHOP,,,อรุณวดี กุลจรัสเดโช,,,,,24/4 ม.2 ซ.เทศบาล 3 ต.บางเตย อ.สามโคก จ.ปทุมธานี 12160,24/4 ม.2 ซ.เทศบาล 3 ต.บางเตย อ.สามโคก จ.ปทุมธานี 12160,ปทุมธานี,,,,14.0698155,100.5063489,,10.00-16.00,,,DC บางพลี,active,admin,ส่วนลดค้าส่ง 2%
B2410032,B2410032,Dog Club Extra,PET SHOP,,,อรุณวดี กุลจรัสเดโช,,,,,63/11 ม.3 ถ.สุขุมวิท ต.ทับมา อ.เมืองระยอง จ.ระยอง 21000,63/11 ม.3 ถ.สุขุมวิท ต.ทับมา อ.เมืองระยอง จ.ระยอง 21000,ระยอง,,,,12.6982117,101.2580449,,,,,"HUB บางละมุง	",active,admin,ส่วนลดค้าส่ง 2%
B2310002,B2310002,Dog Enjoy สาขา ชัยพฤกษ์,PET SHOP,,,อรุณวดี กุลจรัสเดโช,,,,,120/3-6 ม.12 ต.หนองปรือ อ.บางละมุง จ.ชลบุรี 20150,120/3-6 ม.12 ต.หนองปรือ อ.บางละมุง จ.ชลบุรี 20150,ชลบุรี,,,,12.9239757,100.9230843,,10.30-15.00,,,"HUB บางละมุง	",active,admin,ส่วนลด Display 2% + ส่วนลดค้าส่ง 2%
B2205674,B2205674,Dog Enjoy สาขา นาเกลือ,PET SHOP,,,อรุณวดี กุลจรัสเดโช,,,,,472/39 ต.นาเกลือ อ.บางละมุง จ.ชลบุรี,472/39 ต.นาเกลือ อ.บางละมุง จ.ชลบุรี,ชลบุรี,,,,12.9250217,100.8955698,,10.30-15.00,,,"HUB บางละมุง	",active,admin,ส่วนลด Display 2% + ส่วนลดค้าส่ง 2%
B2310010,B2310010,Dog Enjoy สาขา ปั๊มบางจาก,PET SHOP,,,อรุณวดี กุลจรัสเดโช,,,,,15/89 ม.11 ต.หนองปรือ อ.บางละมุง จ.ชลบุรี,15/89 ม.11 ต.หนองปรือ อ.บางละมุง จ.ชลบุรี,ชลบุรี,,,,12.9256482,100.9196557,,10.30-15.00,,,"HUB บางละมุง	",active,admin,ส่วนลด Display 2% + ส่วนลดค้าส่ง 2%
B2309026,B2309026,Dog Enjoy สาขา ศรีราชา,PET SHOP,,,อรุณวดี กุลจรัสเดโช,,,,,137/19-22 ต.ศรีราชา อ.ศรีราชา จ.ชลบุรี 20110,137/19-22 ต.ศรีราชา อ.ศรีราชา จ.ชลบุรี 20110,ชลบุรี,,,,13.1662975,100.9314325,,10.30-15.00,,,"HUB บางละมุง	",active,admin,ส่วนลด Display 2% + ส่วนลดค้าส่ง 2%
B2308026,B2308026,Dog Enjoy สาขา เครือสหพัฒน์,PET SHOP,,,อรุณวดี กุลจรัสเดโช,,,,,88/88 ม.11 ต.หนองขาม อ.ศรีราชา จ.ชลบุรี 20110,88/88 ม.11 ต.หนองขาม อ.ศรีราชา จ.ชลบุรี 20110,ชลบุรี,,,,13.1034636,100.965377,,10.30-15.00,,,"HUB บางละมุง	",active,admin,ส่วนลด Display 2% + ส่วนลดค้าส่ง 2%
B2205673,B2205673,Dog Enjoy สาขา เลียบทางรถไฟ,PET SHOP,,,อรุณวดี กุลจรัสเดโช,,,,,107/22 ม.13 ต.หนองปรือ อ.บางละมุง จ.ชลบุรี,107/22 ม.13 ต.หนองปรือ อ.บางละมุง จ.ชลบุรี,ชลบุรี,,,,12.9255852,100.9205713,,10.30-15.00,,,"HUB บางละมุง	",active,admin,ส่วนลด Display 2% + ส่วนลดค้าส่ง 2%
B2302001,B2302001,Dog Paradise,FARM,,,บริษัท,,,,,15 ถ.เฉลิมพระเกียรติ ร.9 ซอย 32 แขวงหนองบอน เขตประเวศ จ.กรุงเทพฯ,15 ถ.เฉลิมพระเกียรติ ร.9 ซอย 32 แขวงหนองบอน เขตประเวศ จ.กรุงเทพฯ,กรุงเทพฯ,,,,13.6858064,100.6697101,,,,,,active,admin,
B2211052,B2211052,Dragon Petshop,PET SHOP,,,นฤทัย สุโพเคน,,,,,24/3 ถ.เคหะร่มเกล้า แขวงราษฎร์พัฒนา เขตสะพานสูง จ.กรุงเทพฯ 10240,24/3 ถ.เคหะร่มเกล้า แขวงราษฎร์พัฒนา เขตสะพานสูง จ.กรุงเทพฯ 10240,กรุงเทพฯ,,,,13.7655165,100.7238247,,13.00-17.00,,,,active,admin,ต้องมีเด็กติดรถ
B0000018,B0000018,East,PET SHOP,,,อรุณวดี กุลจรัสเดโช,,,,,-,-,กรุงเทพฯ,,,,,,,,,,,active,admin,
B2412012,B2412012,FARMWAY AGI TRADING,PET SHOP,,,บริษัท,,,,,"163 L GRUET ST., SAN JUAN CITY,
PHILIPPINES","163 L GRUET ST., SAN JUAN CITY,
PHILIPPINES",PHILIPPINES,,,,,,,,,,,active,admin,
B2205663,B2205663,FOOD FIT PET MART (ฟู๊ด ฟิท เพ็ท มาร์ท),PET SHOP,,,อรุณวดี กุลจรัสเดโช,,,,,470/13 ม.5 ต.นาเกลือ อ.บางละมุง จ.ชลบุรี,470/13 ม.5 ต.นาเกลือ อ.บางละมุง จ.ชลบุรี,ชลบุรี,,,,12.9519973,100.9109653,,10.00-17.00,,,"HUB บางละมุง	",active,admin,
B2211004,B2211004,Four Pets,PET SHOP,,,ชาตรี ไข่แก้ว,,,,,97/37 ม.8 ต.บานา อ.เมืองปัตตานี จ.ปัตตานี 94000,97/37 ม.8 ต.บานา อ.เมืองปัตตานี จ.ปัตตานี 94000,ปัตตานี,,,,6.8768163,101.2609989,,09.00-17.00,,,HUB หาดใหญ่,active,admin,
B2307025,B2307025,Hanaru Cat Store,PET SHOP,,,ณิชากร อ่อนเทศ,,,,,545/28 มบ.Eternity Town Primrose วัชรพล ถ.สุขาภิบาล 5 แขวงสายไหม เขตสายไหม จ.กรุงเทพฯ 10220,545/28 มบ.Eternity Town Primrose วัชรพล ถ.สุขาภิบาล 5 แขวงสายไหม เขตสายไหม จ.กรุงเทพฯ 10220,กรุงเทพฯ,,,,13.917347,100.6831277,,10.00-17.00,,,,active,admin,"สั่งซื้อสินค้าครบ 20,000 บาทส่วนลด 2%"
B2502042,B2502042,Happy Morning (แฮปปี้ มอร์นิ่ง),FARM,,,บริษัท,,,,,929/81 หมู่บ้านวิลลาจจิโอ สุขสวัสดิ์-ประชาอุทิศ ต.ในคลองบางปลากด อ.พระสมุทรเจดีย์ จ.สมุทรปราการ 10290,929/81 หมู่บ้านวิลลาจจิโอ สุขสวัสดิ์-ประชาอุทิศ ต.ในคลองบางปลากด อ.พระสมุทรเจดีย์ จ.สมุทรปราการ 10290,สมุทรปราการ,,,,13.5936736,100.5101399,,,,,,active,admin,
B2405006,B2405006,Happy Paws สาขา ตลาดลุงออม,PET SHOP,,,เมธาวี แย้มเมืองไชย,,,,,88/18 ต.ปลายบาง อ.บางกรวย จ.นนทบุรี,88/18 ต.ปลายบาง อ.บางกรวย จ.นนทบุรี,นนทบุรี,,,,13.8261322,100.4001513,,10.00-17.00,,,DC บางพลี,active,admin,
B2210055,B2210055,Happy Paws สาขา สายสี่,PET SHOP,,,เมธาวี แย้มเมืองไชย,,,,,"169/1 สายสี่สแควร์
ต.กระทุ่มล้ม อ.สามพราน จ.นครปฐม 73220","169/1 สายสี่สแควร์
ต.กระทุ่มล้ม อ.สามพราน จ.นครปฐม 73220",นครปฐม,,,,13.7423095,100.3261771,,10.00-17.00,,,DC บางพลี,active,admin,
B2405011,B2405011,Happy Paws สาขา อยุธยา ท่าเรือ,PET SHOP,,,เมธาวี แย้มเมืองไชย,,,,,632/24 ต.ท่าเรือ อ.ท่าเรือ จ.อยุธยา,632/24 ต.ท่าเรือ อ.ท่าเรือ จ.อยุธยา,อยุธยา,,,,14.5660043,100.718241,,10.00-17.00,,,HUB อยุธยา,active,admin,
B2505046,B2505046,Homepro บางบัวทอง,PET SHOP,,,พชร ทองเลี่ยมรัตน์,,,,,125 หมู่ที่ 6 ต.บางรักพัฒนา อ.บางบัวทอง จ.นนทบุรี 11110,125 หมู่ที่ 6 ต.บางรักพัฒนา อ.บางบัวทอง จ.นนทบุรี 11110,นนทบุรี,,,,,,,,,,,active,admin,คละสูตรได้ (ครึ่งแพ็ค+ครึ่งแพ็ค) / เปิดไม่ถึงขั้นตํ่า
B2505038,B2505038,Homepro ระยอง,PET SHOP,,,พชร ทองเลี่ยมรัตน์,,,,,560 ถ.สุขุมวิท ต.เนินพระ อ.เมืองระยอง จ.ระยอง 21000,560 ถ.สุขุมวิท ต.เนินพระ อ.เมืองระยอง จ.ระยอง 21000,ระยอง,,,,,,,,,,,active,admin,คละสูตรได้ (ครึ่งแพ็ค+ครึ่งแพ็ค) / เปิดไม่ถึงขั้นตํ่า
B2505042,B2505042,Homepro รังสิต,PET SHOP,,,พชร ทองเลี่ยมรัตน์,,,,,126 ถ.พหลโยธิน ต.ประชาธิปัตย์ อ.ธัญบุรี จ.ปทุมธานี 12130,126 ถ.พหลโยธิน ต.ประชาธิปัตย์ อ.ธัญบุรี จ.ปทุมธานี 12130,กรุงเทพฯ,,,,,,,,,,,active,admin,
B2505043,B2505043,Homepro ลาดกระบัง,PET SHOP,,,พชร ทองเลี่ยมรัตน์,,,,,607 ถ.ลาดกระบัง แขวงลาดกระบัง เขตลาดกระบัง จ.กรุงเทพฯ 10520,607 ถ.ลาดกระบัง แขวงลาดกระบัง เขตลาดกระบัง จ.กรุงเทพฯ 10520,กรุงเทพฯ,,,,,,,,,,,active,admin,คละสูตรได้ (ครึ่งแพ็ค+ครึ่งแพ็ค) / เปิดไม่ถึงขั้นตํ่า
B2505044,B2505044,Homepro สุราษฎร์ธานี,PET SHOP,,,พชร ทองเลี่ยมรัตน์,,,,,61/10 ม.3 ถ.เลี่ยงเมือง อ.เมือง จ.สุราษฎร์ธานี 83130,61/10 ม.3 ถ.เลี่ยงเมือง อ.เมือง จ.สุราษฎร์ธานี 83130,สุราษฎร์ธานี,,,,,,,,,,,active,admin,คละสูตรได้ (ครึ่งแพ็ค+ครึ่งแพ็ค) / เปิดไม่ถึงขั้นตํ่า
B2505045,B2505045,Homepro หัวหิน,PET SHOP,,,พชร ทองเลี่ยมรัตน์,,,,,234/1 ถ.เพชรเกษม ต.หัวหิน อ.หัวหิน จ.ประจวบคีรีขันธ์ 77110,234/1 ถ.เพชรเกษม ต.หัวหิน อ.หัวหิน จ.ประจวบคีรีขันธ์ 77110,ประจวบคีรีขันธ์,,,,,,,,,,,active,admin,คละสูตรได้ (ครึ่งแพ็ค+ครึ่งแพ็ค) / เปิดไม่ถึงขั้นตํ่า
B2205129,B2205129,Howldy Pet Shop,PET SHOP,,,ศรัณยา ธรรมเที่ยง,,,,,"320, 206 ซ.เพชรเกษม 81 แขวงหนองค้างพลู เขตหนองแขม จ.กรุงเทพฯ 10160","320, 206 ซ.เพชรเกษม 81 แขวงหนองค้างพลู เขตหนองแขม จ.กรุงเทพฯ 10160",กรุงเทพฯ,,,,13.7009671,100.3406071,,09.00-16.00,,,,active,admin,
B2205379,B2205379,HuaHin Pet Village Animal Hospital,CLINIC,,,บุณยานุช นรมาตย์,,,,,1/157 หมู่บ้านหนองแก ถ.เขาตะเกียบ ต.หนองแก อ.หัวหิน จ.ประจวบคีรีขันธ์ 77110,1/157 หมู่บ้านหนองแก ถ.เขาตะเกียบ ต.หนองแก อ.หัวหิน จ.ประจวบคีรีขันธ์ 77110,ประจวบคีรีขันธ์,,,,12.5418298,99.9627785,,,,,HUB ปราณบุรี,active,admin,
B2310019,B2310019,I BO PETSHOP & HOTEL (ไอโบ้ เพ็ทช็อปและโรงงาน),PET SHOP,,,ณิชากร อ่อนเทศ,,,,,เลขที่ 77 ถ.พหลโยธิน แขวงอนุสาวรีย์ เขตบางเขน จ.กรุงเทพฯ 10220,เลขที่ 77 ถ.พหลโยธิน แขวงอนุสาวรีย์ เขตบางเขน จ.กรุงเทพฯ 10220,กรุงเทพฯ,,,,13.8664217,100.5911189,,10.00-17.00,,,,active,admin,
B2205260,B2205260,I Pet Shop,PET SHOP,,,ณิชากร อ่อนเทศ,,,,,4/9 ม.5 ถ.ไสวประชาราษฎร์ ต.ลาดสวาย อ.ลำลูกกา จ.ปทุมธานี 12150,4/9 ม.5 ถ.ไสวประชาราษฎร์ ต.ลาดสวาย อ.ลำลูกกา จ.ปทุมธานี 12150,ปทุมธานี,,,,13.9559286,100.6848026,,10.00-17.00,,,DC บางพลี,active,admin,
B2205114,B2205114,Infinis Pet Shop,PET SHOP,,,ณิชากร อ่อนเทศ,,,,,125/1 ถ.โยธาธิการคูคต-คลองหลวง ต.ประชาธิปัตย์ อ.ธัญบุรี จ.ปทุมธานี 12130,125/1 ถ.โยธาธิการคูคต-คลองหลวง ต.ประชาธิปัตย์ อ.ธัญบุรี จ.ปทุมธานี 12130,ปทุมธานี,,,,14.0051865,100.6636936,,,,,DC บางพลี,active,admin,
B2210034,B2210034,Infinis Pet Shop (สาขา 2 ตลาดสิริทรัพย์),PET SHOP,,,ณิชากร อ่อนเทศ,,,,,1779 ถ.พหลโยธิน แขวงจตุจักร เขตจตุจักร จ.กรุงเทพฯ,1779 ถ.พหลโยธิน แขวงจตุจักร เขตจตุจักร จ.กรุงเทพฯ,กรุงเทพฯ,,,,13.8260199,100.5672716,,,,,,active,admin,
B2502024,B2502024,JK Pet Lover (สาขา 3 ในเมือง),PET SHOP,,,สุวภัทร เพ็งกลางเดือน,,,,,244/76 ถ.อำเภอ ต.มะขามเตี้ย อ.เมือง จ.สุราษฎร์ธานี 84000,244/76 ถ.อำเภอ ต.มะขามเตี้ย อ.เมือง จ.สุราษฎร์ธานี 84000,สุราษฏร์ธานี,,,,,,,,,,,active,admin,
B2502022,B2502022,JK Pet Lover (สาขา1 ปากแมว),PET SHOP,,,สุวภัทร เพ็งกลางเดือน,,,,,เลขที่ 143/3 ม.7 ต.มะขามเตี้ย อ.เมืองสุราษฏร์ธานี จ.สุราษฏร์ธานี 84000,เลขที่ 143/3 ม.7 ต.มะขามเตี้ย อ.เมืองสุราษฏร์ธานี จ.สุราษฏร์ธานี 84000,สุราษฎร์ธานี,,,,9.0930046,99.3624283,,,,,,active,admin,
B2502023,B2502023,JK Pet Lover (สาขา2 ปากหมา),PET SHOP,,,สุวภัทร เพ็งกลางเดือน,,,,,121/16 ม.9 ต.ขุนทะเล อ.เมืองสุราษฎร์ธานี จ.สุราษฎร์ธานี 84000,121/16 ม.9 ต.ขุนทะเล อ.เมืองสุราษฎร์ธานี จ.สุราษฎร์ธานี 84000,สุราษฏร์ธานี,,,,,,,,,,,active,admin,
B2407025,B2407025,JM-เพ็ทช็อป,PET SHOP,,,ธันย์ชนก พรอำนวยทรัพย์,,,,,5/434 ซ.หมู่บ้านทุ่งเศรษฐี แขวงดอกไม้ เขตประเวศ จ.กรุงเทพฯ 10250,5/434 ซ.หมู่บ้านทุ่งเศรษฐี แขวงดอกไม้ เขตประเวศ จ.กรุงเทพฯ 10250,กรุงเทพฯ,,,,13.6684685,100.6959028,,10.00-17.00,,,,active,admin,"ซื้อครบ 30,000 บาท ได้ 2%"
B2205168,B2205168,K.U. Garden สาขา บางแค,PET SHOP,,,พชร ทองเลี่ยมรัตน์,,,,,1535 ถ.กาญจนาภิเษก แขวงบางแคเหนือ เขตบางแค จ.กรุงเทพฯ,1535 ถ.กาญจนาภิเษก แขวงบางแคเหนือ เขตบางแค จ.กรุงเทพฯ,กรุงเทพฯ,,,,13.7280842,100.4054786,,09.00-15.00,,,,active,admin,ส่วนลดค้าส่ง 2%
B2205170,B2205170,K.U. Garden สาขา รัตนาธิเบศร์,PET SHOP,,,พชร ทองเลี่ยมรัตน์,,,,,97/1 ถ.เลี่ยงเมืองนนทบุรี ต.ตลาดขวัญ อ.เมือง จ.นนทบุรี,97/1 ถ.เลี่ยงเมืองนนทบุรี ต.ตลาดขวัญ อ.เมือง จ.นนทบุรี,นนทบุรี,,,,13.8547701,100.4964635,,09.00-15.00,,,DC บางพลี,active,admin,ส่วนลดค้าส่ง 2%
B2205169,B2205169,K.U. Garden สาขา ศรีนครินทร์,PET SHOP,,,พชร ทองเลี่ยมรัตน์,,,,,"1043,1045 ถ.ศรีนครินทร์ แขวงสวนหลวง เขตสวนหลวง จ.กรุงเทพฯ","1043,1045 ถ.ศรีนครินทร์ แขวงสวนหลวง เขตสวนหลวง จ.กรุงเทพฯ",กรุงเทพฯ,,,,13.7062715,100.6455508,,09.00-15.00,,,,active,admin,ส่วนลดค้าส่ง 2%
B2505006,B2505006,Khanh Lung Company,PET SHOP,,,บริษัท,,,,,"104,Changaheng St., Huatan Township, 
Changhua Country 50347, Taiwan","104,Changaheng St., Huatan Township, 
Changhua Country 50347, Taiwan",Taiwan,,,,,,,,,,,active,admin,
B2310018,B2310018,Kingkong Petshop สาขา True Digital park,PET SHOP,,,บุณยานุช นรมาตย์,,,,,เลขที 101 ชั้น 1 เลขที่ห้อง 122 ถ.สุขุมวิท แขวงบางจาก เขตพระโขนง จ.กรุงเทพฯ 10260,เลขที 101 ชั้น 1 เลขที่ห้อง 122 ถ.สุขุมวิท แขวงบางจาก เขตพระโขนง จ.กรุงเทพฯ 10260,กรุงเทพฯ,,,,13.6982179,100.6142175,,10.00-17.00,,,,active,admin,เปิดสินค้าคละสูตร (ครึ่งแพ็ค+ครึ่งแพ็ค)
B2205307,B2205307,Kingkong Petshop สาขา Warehouse26,PET SHOP,,,บุณยานุช นรมาตย์,,,,,100/68 แวร์เฮ้าส์26 ห้องE ซ.สุขุมวิท26 แขวงคลองตัน เขตคลองเตย จ.กรุงเทพฯ 10110,100/68 แวร์เฮ้าส์26 ห้องE ซ.สุขุมวิท26 แขวงคลองตัน เขตคลองเตย จ.กรุงเทพฯ 10110,กรุงเทพฯ,,,,13.7207257,100.5682973,,10.00-17.00,,,,active,admin,เปิดสินค้าคละสูตร (ครึ่งแพ็ค+ครึ่งแพ็ค)
B2205310,B2205310,Kingkong Petshop สาขา รามอินทรา,PET SHOP,,,บุณยานุช นรมาตย์,,,,,40/62 ซ.รามอินทรา 39 แขวงอนุสาวรีย์ เขตบางเขน จ.กรุงเทพฯ 10220,40/62 ซ.รามอินทรา 39 แขวงอนุสาวรีย์ เขตบางเขน จ.กรุงเทพฯ 10220,กรุงเทพฯ,,,,13.8722741,100.6039948,,10.00-17.00,,,,active,admin,เปิดสินค้าคละสูตร (ครึ่งแพ็ค+ครึ่งแพ็ค)
B2205306,B2205306,Kingkong Petshop สาขา สำนักงานใหญ่,PET SHOP,,,บุณยานุช นรมาตย์,,,,,417 ม.2 ต.สามเรือน อ.บางปะอิน จ.พระนครศรีอยุธยา 13160,417 ม.2 ต.สามเรือน อ.บางปะอิน จ.พระนครศรีอยุธยา 13160,อยุธยา,,,,14.3080074,100.6429892,,10.00-17.00,,,HUB อยุธยา,active,admin,เปิดสินค้าคละสูตร (ครึ่งแพ็ค+ครึ่งแพ็ค)
B2205308,B2205308,Kingkong Petshop สาขา โลตัส พระราม4,PET SHOP,,,บุณยานุช นรมาตย์,,,,,3300 ห้องเลขที่ P2048 ชั้นที่ 2 ถ.พระรามที่ 4 ต.คลองตัน อ.คลองเตย จ.กรุงเทพฯ,3300 ห้องเลขที่ P2048 ชั้นที่ 2 ถ.พระรามที่ 4 ต.คลองตัน อ.คลองเตย จ.กรุงเทพฯ,กรุงเทพฯ,,,,13.7273175,100.5407124,,10.00-17.00,,,,active,admin,เปิดสินค้าคละสูตร (ครึ่งแพ็ค+ครึ่งแพ็ค)
B2205309,B2205309,Kingkong Petshop สาขา โลตัส อยุธยา,PET SHOP,,,บุณยานุช นรมาตย์,,,,,126 ม.3 ถ.สายเอเชีย ต.คลองสวนพลู อ.เมือง จ.พระนครศรีอยุธยา,126 ม.3 ถ.สายเอเชีย ต.คลองสวนพลู อ.เมือง จ.พระนครศรีอยุธยา,อยุธยา,,,,14.2307482,100.7124891,,10.00-17.00,,,HUB อยุธยา,active,admin,เปิดสินค้าคละสูตร (ครึ่งแพ็ค+ครึ่งแพ็ค)
B2501004,B2501004,Lanna Sky (ลานนา สกาย),FARM,,,บริษัท,,,,,145/6 บ้านชวนทัศน์ ซ.ช่างเคี่ยน ถ.ห้วยแก้ว ต.ช้างเผือก อ.เมือง จ.เชียงใหม่ 50300,145/6 บ้านชวนทัศน์ ซ.ช่างเคี่ยน ถ.ห้วยแก้ว ต.ช้างเผือก อ.เมือง จ.เชียงใหม่ 50300,เชียงใหม่,,,,,,,,,,,active,admin,
B2504002,B2504002,Lipsteen Cattery (ลิปทีน แคทเทอรี่),PET SHOP,,,บริษัท,,,,,239/21 ม.5 หมู่บ้านฟอร์ล่าวิวล์ ซ.3 ต.บางเมือง อ.เมืองสมุทรปราการ จ.สมุทรปราการ 10270,239/21 ม.5 หมู่บ้านฟอร์ล่าวิวล์ ซ.3 ต.บางเมือง อ.เมืองสมุทรปราการ จ.สมุทรปราการ 10270,สมุทรปราการ,,,,,,,,,,,active,admin,
B2306027,B2306027,Little paws Pet shop (ลิทเติ้ลพาว เพ็ทช็อป),PET SHOP,,,อรุณวดี กุลจรัสเดโช,,,,,154-156 ถ.เอมรอรอุทิศ1 ต.หน้าเมือง อ.เมืองฉะเชิงเทรา จ.ฉะเชิงเทรา,154-156 ถ.เอมรอรอุทิศ1 ต.หน้าเมือง อ.เมืองฉะเชิงเทรา จ.ฉะเชิงเทรา,ฉะเชิงเทรา,,,,13.6862204,101.0672741,,10.00-17.00,,,DC บางพลี,active,admin,
B2210057,B2210057,LittleSpider & Friends สาขา มหิดล 2,PET SHOP,,,เมธาวี แย้มเมืองไชย,,,,,999 อาคารราชพัสดุ ลานวัฒนธรรม ม.มหิดล ศาลายา ถ.พุทธมณทลสาย 4 ต.พุทธมณทล อ.ศาลายา จ.นครปฐม 73170,999 อาคารราชพัสดุ ลานวัฒนธรรม ม.มหิดล ศาลายา ถ.พุทธมณทลสาย 4 ต.พุทธมณทล อ.ศาลายา จ.นครปฐม 73170,นครปฐม,,,,13.7943814,100.3256274,,10.00-17.00,,,DC บางพลี,active,admin,
B2210058,B2210058,LittleSpider & Friends สาขา มหิดล 3,PET SHOP,,,เมธาวี แย้มเมืองไชย,,,,,73/107-110 ม.5 ต.ศาลายา อ.พุทธมณทล อ.ศาลายา จ.นครปฐม 73170,73/107-110 ม.5 ต.ศาลายา อ.พุทธมณทล อ.ศาลายา จ.นครปฐม 73170,นครปฐม,,,,13.8345201,100.3409107,,10.00-17.00,,,DC บางพลี,active,admin,
B2210056,B2210056,LittleSpider & Friends สาขา เมกาบางนา,PET SHOP,,,เมธาวี แย้มเมืองไชย,,,,,39 เมกาบางนา (ลานจอดรถโซนโฮมโปรเสา Q51) ถ.บางนา-ตราด ต.บางแก้ว อ.บางพลี จ.สมุทรปราการ,39 เมกาบางนา (ลานจอดรถโซนโฮมโปรเสา Q51) ถ.บางนา-ตราด ต.บางแก้ว อ.บางพลี จ.สมุทรปราการ,สมุทรปราการ,,,,13.6082486,100.7680389,,10.00-17.00,,,,active,admin,
B2301022,B2301022,Love my Cat (เลิฟ มาย แคท),PET SHOP,,,ณัฐชยา ศิริเธียรไชย,,,,,22/60 ม.7 ซ.มัณฑนา ถ.บางนา-ตราด ต.บางโฉลง อ.บางพลี จ.สมุทรปราการ 10540,22/60 ม.7 ซ.มัณฑนา ถ.บางนา-ตราด ต.บางโฉลง อ.บางพลี จ.สมุทรปราการ 10540,สมุทรปราการ,,,,13.616737,100.7554378,,10.00-16.00,,,,active,admin,
B2309003,B2309003,M.O.O. PETSHOP,PET SHOP,,,ณิชากร อ่อนเทศ,,,,,22 ซ.คู้บอน 27 แขวงท่าแร้ง เขตบางเขน กรุงเทพฯ 10220,22 ซ.คู้บอน 27 แขวงท่าแร้ง เขตบางเขน กรุงเทพฯ 10220,กรุงเทพฯ,,,,13.8638439,100.6675829,,09.00-17.00,,,,active,admin,
B2205359,B2205359,M.l. Pet Shop,PET SHOP,,,บุณยานุช นรมาตย์,,,,,145/12 ม. 2 ซ.เศรษฐกิจ8 ถ.เพชรเกษม ต.อ้อมน้อย อ.กระทุ่มแบน จ.สมุทรสาคร,145/12 ม. 2 ซ.เศรษฐกิจ8 ถ.เพชรเกษม ต.อ้อมน้อย อ.กระทุ่มแบน จ.สมุทรสาคร,สมุทรสาคร,,,,10.5100931,99.1217643,,09.00-16.00,,,DC บางพลี,active,admin,
B2211031,B2211031,MJ Pet Mart (เอ็มเจ),PET SHOP,,,นันท์ธนัษฐ์ ยะวรรณ,,,,,405 ม.2 ต.เจดีย์ อ.ปัว จ.น่าน 55120,405 ม.2 ต.เจดีย์ อ.ปัว จ.น่าน 55120,น่าน,,,,19.1873229,101.0259275,,,,,HUB ลำปาง,active,admin,
B2211035,B2211035,MN Pet Mart,PET SHOP,,,นันท์ธนัษฐ์ ยะวรรณ,,,,,76/6 ถ.หมื่นด้ามคต ต.ช้างเผือก อ.เมืองเชียงใหม่ จ.เชียงใหม่ 50300,76/6 ถ.หมื่นด้ามคต ต.ช้างเผือก อ.เมืองเชียงใหม่ จ.เชียงใหม่ 50300,เชียงใหม่,,,,18.8072514,98.9575522,,,,,HUB เชียงใหม่,active,admin,
B2205661,B2205661,Merry Pet (เมอร์รี่เพ็ท),PET SHOP,,,อรุณวดี กุลจรัสเดโช,,,,,61/54 ถ.แสนสุข ต.แสนสุข อ.เมือง จ.ชลบุรี,61/54 ถ.แสนสุข ต.แสนสุข อ.เมือง จ.ชลบุรี,ชลบุรี,,,,13.2785536,100.9404629,,10.00-16.00,,,DC บางพลี,active,admin,
B2205033,B2205033,Mew Pet Shop,PET SHOP,,,เมธาวี แย้มเมืองไชย,,,,,82/6 ม.3 ซ.ท่าอิฐ ถ.รัตนาธิเบศร์ ต.บางรักน้อย อ.เมือง จ.นนทบุรี,82/6 ม.3 ซ.ท่าอิฐ ถ.รัตนาธิเบศร์ ต.บางรักน้อย อ.เมือง จ.นนทบุรี,นนทบุรี,,,,13.8830603,100.4578113,,10.00-17.00,,,DC บางพลี,active,admin,
B2506007,B2506007,Mini pet mart (มินิ เพ็ทมาร์ท),PET SHOP,,,เมธาวี แย้มเมืองไชย,,,,,17/14 ถ.พัฒนาชนบท 3 แขวงคลองสองต้นนุ่น เขตลาดกระบัง จ.กรุงเทพฯ 10520,17/14 ถ.พัฒนาชนบท 3 แขวงคลองสองต้นนุ่น เขตลาดกระบัง จ.กรุงเทพฯ 10520,กรุงเทพฯ,,,,,,,,,,,active,admin,
B2308002,B2308002,Momo.square,PET SHOP,,,นฤทัย สุโพเคน,,,,,46/95 ม.23 ต.บางพลีใหญ่ อ.บางพลี จ.สมุทรปราการ,46/95 ม.23 ต.บางพลีใหญ่ อ.บางพลี จ.สมุทรปราการ,สมุทรปราการ,,,,13.5850112,100.6977163,,10.00-16.00,,,,active,admin,"ต้องมีเด็กติดรถ / ยอดซื้อถึง 20,000 ได้ส่วนลด 2%"
B2310005,B2310005,My Paws,PET SHOP,,,ธันย์ชนก พรอำนวยทรัพย์,,,,,7 รามอินทรา ซ.34 แยก 12 แขวงท่าแร้ง เขตบางเขน จ.กรุงเทพฯ 10220,7 รามอินทรา ซ.34 แยก 12 แขวงท่าแร้ง เขตบางเขน จ.กรุงเทพฯ 10220,กรุงเทพฯ,,,,13.6845036,100.5382581,,10.00-16.00,,,,active,admin,ต้องมีเด็กติดรถ
B2501006,B2501006,My Paws โกดัง,PET SHOP,,,ธันย์ชนก พรอำนวยทรัพย์,,,,,เลขที่ A9 โครงการพาพรเศรษฐการ ต.บางเสาธง อ.บางเสาธง จ.สมุทรปราการ,เลขที่ A9 โครงการพาพรเศรษฐการ ต.บางเสาธง อ.บางเสาธง จ.สมุทรปราการ,สมุทรปราการ,,,,13.5767941,100.8083927,,,,,,active,admin,ต้องมีเด็กติดรถ
B2311001,B2311001,NECTAR SHIRE,FARM,,,บริษัท,,,,,287 ม.10 ต.หนองบัวใหญ่ อ.จัตุรัส จ.ชัยภูมิ 36130,287 ม.10 ต.หนองบัวใหญ่ อ.จัตุรัส จ.ชัยภูมิ 36130,ชัยภูมิ,,,,15.5642315,101.8777664,,,,,HUB โคราช,active,admin,
B2205124,B2205124,NELLY PET SHOP′S,PET SHOP,,,เมธาวี แย้มเมืองไชย,,,,,99/9 อาคารจอดเซ็นทรัลแจ้งวัฒนะ ชั้น 1 ซ.แจ้งวัฒนะ-ปากเกร็ด 19 อ.ปากเกร็ด จ.นนทบุรี 11120,99/9 อาคารจอดเซ็นทรัลแจ้งวัฒนะ ชั้น 1 ซ.แจ้งวัฒนะ-ปากเกร็ด 19 อ.ปากเกร็ด จ.นนทบุรี 11120,นนทบุรี,,,,13.9037255,100.5288696,,10.00-17.00,,,DC บางพลี,active,admin,
B2502027,B2502027,"NPT PET MART HOLDING CO.,LTD.",PET SHOP,,,บริษัท,,,,,"1230, Thitsar Road, South Okklar Township,Yagon, Myanmar","1230, Thitsar Road, South Okklar Township,Yagon, Myanmar",MYANMAR.,,,,,,,,,,,active,admin,
B0000020,B0000020,North [Lower],PET SHOP,,,จุฑาภรณ์ กรรธิภากร,,,,,-,-,กรุงเทพฯ,,,,,,,,,,,active,admin,
B0000022,B0000022,Northeast [Lower],PET SHOP,,,จุฑาภรณ์ กรรธิภากร,,,,,-,-,กรุงเทพฯ,,,,,,,,,,,active,admin,
B0000021,B0000021,Northeast [Upper],PET SHOP,,,จุฑาภรณ์ กรรธิภากร,,,,,-,-,กรุงเทพฯ,,,,,,,,,,,active,admin,
B2210042,B2210042,OKANE PET HOME STORE สาขา ชัยพฤกษ์,PET SHOP,,,ศรัณยา ธรรมเที่ยง,,,,,90/1 ม.5 ต.คลองพระอุดม อ.ปากเกร็ด จ.นนทบุรี,90/1 ม.5 ต.คลองพระอุดม อ.ปากเกร็ด จ.นนทบุรี,นนทบุรี,,,,13.9016281,100.5259089,,10.00-17.00,,,DC บางพลี,active,admin,
B2210044,B2210044,OKANE PET HOME STORE สาขา บางบัวทอง,PET SHOP,,,ศรัณยา ธรรมเที่ยง,,,,,65/8 ม.2 ต.โสนลอย อ.บางบัวทอง จ.นนทบุรี,65/8 ม.2 ต.โสนลอย อ.บางบัวทอง จ.นนทบุรี,นนทบุรี,,,,13.9165642,100.4299447,,10.00-17.00,,,DC บางพลี,active,admin,
B2307002,B2307002,OKANE PET HOME STORE สาขา รัตนาธิเบศร์,PET SHOP,,,ศรัณยา ธรรมเที่ยง,,,,,19 13 ม.5 ถ.ราชพฤกษ์ บางรักน้อย อ.เมืองนนทบุรี จ.นนทบุรี 11000,19 13 ม.5 ถ.ราชพฤกษ์ บางรักน้อย อ.เมืองนนทบุรี จ.นนทบุรี 11000,นนทบุรี,,,,13.8844735,100.4497246,,10.00-17.00,,,DC บางพลี,active,admin,
B2205099,B2205099,OKANE PET HOME STORE สาขา ราชพฤกษ์,PET SHOP,,,ศรัณยา ธรรมเที่ยง,,,,,55/58 ม.2 ต.บางพลับ อ.ปากเกร็ด จ.นนทบุรี,55/58 ม.2 ต.บางพลับ อ.ปากเกร็ด จ.นนทบุรี,นนทบุรี,,,,13.9169839,100.4846914,,10.00-17.00,,,DC บางพลี,active,admin,
B2410004,B2410004,OKANE PET HOME STORE สาขา วัดลาดปลาดุก,PET SHOP,,,ศรัณยา ธรรมเที่ยง,,,,,97/5 ม.8 ต.บางรักพัฒนา อ.บางบัวทอง จ.นนทบุรี 11110,97/5 ม.8 ต.บางรักพัฒนา อ.บางบัวทอง จ.นนทบุรี 11110,นนทบุรี,,,,13.9103685,100.3953478,,10.00-17.00,,,DC บางพลี,active,admin,
B2301008,B2301008,OKANE PET HOME STORE สำนักงานใหญ่,PET SHOP,,,ศรัณยา ธรรมเที่ยง,,,,,25/6 ม.5 ต.บางพลับ อ.ปากเกร็ด จ.นนทบุรี,25/6 ม.5 ต.บางพลับ อ.ปากเกร็ด จ.นนทบุรี,นนทบุรี,,,,13.8923948,100.5188392,,10.00-17.00,,,DC บางพลี,active,admin,
B2205362,B2205362,Oh My Dog,PET SHOP,,,บุณยานุช นรมาตย์,,,,,923/513 ถ.เศรษฐกิจ1 ต.มหาชัย อ.เมือง จ.สมุทรสาคร,923/513 ถ.เศรษฐกิจ1 ต.มหาชัย อ.เมือง จ.สมุทรสาคร,สมุทรสาคร,,,,13.5550639,100.2732509,,09.00-16.00,,,DC บางพลี,active,admin,
B2210039,B2210039,P.PET PAVILION สาขา พันท้ายนรสิงห์,PET SHOP,,,ศรัณยา ธรรมเที่ยง,,,,,127/4 สค.2004 ต.พันท้ายนรสิงห์ อ.เมืองสมุทรสาคร จ.สมุทรสาคร 74000,127/4 สค.2004 ต.พันท้ายนรสิงห์ อ.เมืองสมุทรสาคร จ.สมุทรสาคร 74000,สมุทรสาคร,,,,13.5894219,100.3667457,,09.00-16.00,,,DC บางพลี,active,admin,
B2205154,B2205154,P.PET PAVILION สาขา วิคตอเรีย การ์เด้นส์,PET SHOP,,,ศรัณยา ธรรมเที่ยง,,,,,39 ม.4 ห้อง M102 ถ.เพชรเกษม แขวงหลักสอง เขตบางแค จ.กรุงเทพฯ 10160,39 ม.4 ห้อง M102 ถ.เพชรเกษม แขวงหลักสอง เขตบางแค จ.กรุงเทพฯ 10160,กรุงเทพฯ,,,,13.7092319,100.3905715,,09.00-16.00,,,,active,admin,
B2407039,B2407039,PET CLUB สาขา Bukis ภูเก็ต,PET SHOP,,,พชร ทองเลี่ยมรัตน์,,,,,89 ม.5 โครงการ บูกิส ภูเก็ต ห้องบี-เอสเอ 2 โซนบี ต.วิชิต อ.เมืองภูเก็ต จ.ภูเก็ต 83000,89 ม.5 โครงการ บูกิส ภูเก็ต ห้องบี-เอสเอ 2 โซนบี ต.วิชิต อ.เมืองภูเก็ต จ.ภูเก็ต 83000,ภูเก็ต,,,,7.8944591,98.3685783,,10.00-15.00,,,HUB พุนพิน,active,admin,คละสูตรได้ (ครึ่งแพ็ค+ครึ่งแพ็ค) / เปิดไม่ถึงขั้นตํ่า
B2501014,B2501014,PET CLUB สาขา Select MRT ลาดพร้าว,PET SHOP,,,พชร ทองเลี่ยมรัตน์,,,,,สถานีรถไฟฟ้าใต้ดินสถานีลาดพร้าว ถ.ลาดพร้าว แขวงจอมพล เขตจตุจักร จ.กรุงเทพฯ 10900,สถานีรถไฟฟ้าใต้ดินสถานีลาดพร้าว ถ.ลาดพร้าว แขวงจอมพล เขตจตุจักร จ.กรุงเทพฯ 10900,กรุงเทพฯ,,,,13.7870612,100.5756644,,,,,,active,admin,คละสูตรได้ (ครึ่งแพ็ค+ครึ่งแพ็ค) / เปิดไม่ถึงขั้นตํ่า
B2412015,B2412015,PET CLUB สาขา งามวงศ์วาน (ลาดจอดรถ),PET SHOP,,,พชร ทองเลี่ยมรัตน์,,,,,"408,410,412,414,416,418,420,422,424,426,4
28,430,430/1 ศูนย์การค้าเดอะมอลล์งามวงศ์วาน
ห้อง C1-G1ชั ้นG ถ.งามวงศ์วาน ต.บางเขน เมือง
นนทบุรี จ.นนทบุรี 11000","408,410,412,414,416,418,420,422,424,426,4
28,430,430/1 ศูนย์การค้าเดอะมอลล์งามวงศ์วาน
ห้อง C1-G1ชั ้นG ถ.งามวงศ์วาน ต.บางเขน เมือง
นนทบุรี จ.นนทบุรี 11000",นนทบุรี,,,,13.855963,100.5394895,,,,,,active,admin,คละสูตรได้ (ครึ่งแพ็ค+ครึ่งแพ็ค) / เปิดไม่ถึงขั้นตํ่า
B2403051,B2403051,PET CLUB สาขา ซีคอนบางแค,PET SHOP,,,พชร ทองเลี่ยมรัตน์,,,,,607 ศูนย์การค้าซีคอนบางแค ห้อง บี42 ชั้นบี ถ.เพชรเกษม แขวงบางหว้า เขตภาษีเจริญ จ.กรุงเทพฯ 10160,607 ศูนย์การค้าซีคอนบางแค ห้อง บี42 ชั้นบี ถ.เพชรเกษม แขวงบางหว้า เขตภาษีเจริญ จ.กรุงเทพฯ 10160,กรุงเทพฯ,,,,13.7117631,100.434132,,10.00-15.00,,,,active,admin,คละสูตรได้ (ครึ่งแพ็ค+ครึ่งแพ็ค) / เปิดไม่ถึงขั้นตํ่า
B2403052,B2403052,PET CLUB สาขา ซีคอนสแควร์,PET SHOP,,,พชร ทองเลี่ยมรัตน์,,,,,55 ศูนย์การค้าซีคอนสแควร์ ห้อง บี 0044-บี0047 ถ.ศรีนครินทร์ แขวงหนองบอน เขตประเวศ จ.กรุงเทพฯ 10250,55 ศูนย์การค้าซีคอนสแควร์ ห้อง บี 0044-บี0047 ถ.ศรีนครินทร์ แขวงหนองบอน เขตประเวศ จ.กรุงเทพฯ 10250,กรุงเทพฯ,,,,13.6943348,100.6483001,,10.00-15.00,,,,active,admin,คละสูตรได้ (ครึ่งแพ็ค+ครึ่งแพ็ค) / เปิดไม่ถึงขั้นตํ่า
B2503014,B2503014,PET CLUB สาขา ดีไซน์วิลเลจ บางนา,PET SHOP,,,พชร ทองเลี่ยมรัตน์,,,,,15/2 ม.14 อาคารซี ถ.บางนาตราด ต.บางพลีใหญ่ อ.บางพลี จ.สมุทรปราการ 10540,15/2 ม.14 อาคารซี ถ.บางนาตราด ต.บางพลีใหญ่ อ.บางพลี จ.สมุทรปราการ 10540,สมุทรปราการ,,,,13.6458992,100.6894065,,,,,,active,admin,คละสูตรได้ (ครึ่งแพ็ค+ครึ่งแพ็ค) / เปิดไม่ถึงขั้นตํ่า
B2205083,B2205083,PET CLUB สาขา พรอมมานาด,PET SHOP,,,พชร ทองเลี่ยมรัตน์,,,,,589/7-9 ห้องเลขที่ P-1054-1055 (ชั้นที่ 1) อาคารศูนย์การค้า เดอะพรมมานาด ถ.รามอินทรา แขวงคันนายาว เขตคันนายาว จ.กรุงเทพฯ 10230,589/7-9 ห้องเลขที่ P-1054-1055 (ชั้นที่ 1) อาคารศูนย์การค้า เดอะพรมมานาด ถ.รามอินทรา แขวงคันนายาว เขตคันนายาว จ.กรุงเทพฯ 10230,กรุงเทพฯ,,,,13.8414423,100.6651312,,10.00-15.00,,,,active,admin,คละสูตรได้ (ครึ่งแพ็ค+ครึ่งแพ็ค) / เปิดไม่ถึงขั้นตํ่า
B2409012,B2409012,PET CLUB สาขา พอร์โต้ ชิโน,PET SHOP,,,พชร ทองเลี่ยมรัตน์,,,,,ศูนย์การค้า พอร์โต้ ชิโน่ A124-A125 ม.4 ถ.พระราม2 ต.นาดี อ.เมืองสมุทรสาคร จ.สมุทรสาคร 74000,ศูนย์การค้า พอร์โต้ ชิโน่ A124-A125 ม.4 ถ.พระราม2 ต.นาดี อ.เมืองสมุทรสาคร จ.สมุทรสาคร 74000,สมุทรสาคร,,,,13.5692857,100.2866383,,10.00-15.00,,,DC บางพลี,active,admin,คละสูตรได้ (ครึ่งแพ็ค+ครึ่งแพ็ค) / เปิดไม่ถึงขั้นตํ่า
B2503008,B2503008,PET CLUB สาขา มาร์เช่ทองหล่อ,PET SHOP,,,พชร ทองเลี่ยมรัตน์,,,,,โครงการ มาร์เช่ ห้อง ทีเอชแอล02 แอลเอสจี03-ทีเอชแอล02แอลเอสจี04 เลขที่ 144 ซ.สุขุมวิท 55 (ทองหล่อ) แขวงคลองตันเหนือ เขตวัฒนา จ.กรุงเทพฯ 10110,โครงการ มาร์เช่ ห้อง ทีเอชแอล02 แอลเอสจี03-ทีเอชแอล02แอลเอสจี04 เลขที่ 144 ซ.สุขุมวิท 55 (ทองหล่อ) แขวงคลองตันเหนือ เขตวัฒนา จ.กรุงเทพฯ 10110,กรุงเทพฯ,,,,,,,,,,,active,admin,คละสูตรได้ (ครึ่งแพ็ค+ครึ่งแพ็ค) / เปิดไม่ถึงขั้นตํ่า
B2403067,B2403067,PET CLUB สาขา รามอินทรา,PET SHOP,,,พชร ทองเลี่ยมรัตน์,,,,,255 ถ.รามอินทรา แขวงอนุสาวรีย์ เขตบางเขน จ.กรุงเทพฯ 10220,255 ถ.รามอินทรา แขวงอนุสาวรีย์ เขตบางเขน จ.กรุงเทพฯ 10220,กรุงเทพฯ,,,,13.8643647,100.6157434,,10.00-15.00,,,,active,admin,คละสูตรได้ (ครึ่งแพ็ค+ครึ่งแพ็ค) / เปิดไม่ถึงขั้นตํ่า
B2403066,B2403066,PET CLUB สาขา ลาดพร้าว 101,PET SHOP,,,พชร ทองเลี่ยมรัตน์,,,,,779 ลาดพร้าว 101 (วัดบึงทองหลาง) ถ.ลาดพร้าว แขวงคลองเจ้าคุณสิงห์ เขตวังทองหลาง จ.กรุงเทพฯ 10310,779 ลาดพร้าว 101 (วัดบึงทองหลาง) ถ.ลาดพร้าว แขวงคลองเจ้าคุณสิงห์ เขตวังทองหลาง จ.กรุงเทพฯ 10310,กรุงเทพฯ,,,,13.785552,100.6299129,,10.00-15.00,,,,active,admin,คละสูตรได้ (ครึ่งแพ็ค+ครึ่งแพ็ค) / เปิดไม่ถึงขั้นตํ่า
B2205080,B2205080,PET CLUB สาขา สยามพารากอน,PET SHOP,,,พชร ทองเลี่ยมรัตน์,,,,,991 สยามพารากอน (Gourmet Market) ถ.พระราม 1 แขวงปทุมวัน เขตปทุมวัน จ.กรุงเทพฯ 10330,991 สยามพารากอน (Gourmet Market) ถ.พระราม 1 แขวงปทุมวัน เขตปทุมวัน จ.กรุงเทพฯ 10330,กรุงเทพฯ,,,,13.7467988,100.5350636,,10.00-15.00,,,,active,admin,คละสูตรได้ (ครึ่งแพ็ค+ครึ่งแพ็ค) / เปิดไม่ถึงขั้นตํ่า
B2504004,B2504004,PET CLUB สาขา เซ็นทรัลจันทบุรี,PET SHOP,,,พชร ทองเลี่ยมรัตน์,,,,,199 ศูนย์การค้าเซ็นทรัลจันทบุรี ห้อง LG01 ชั้น LG ม.7 ต.จันทนิมิตร อ.เมืองจันทบุรี จ.จันทบุรี 22000,199 ศูนย์การค้าเซ็นทรัลจันทบุรี ห้อง LG01 ชั้น LG ม.7 ต.จันทนิมิตร อ.เมืองจันทบุรี จ.จันทบุรี 22000,จันทบุรี,,,,,,,,,,,active,admin,คละสูตรได้ (ครึ่งแพ็ค+ครึ่งแพ็ค) / เปิดไม่ถึงขั้นตํ่า
B2205076,B2205076,PET CLUB สาขา เดอะมอลล์งามวงศ์วาน,PET SHOP,,,พชร ทองเลี่ยมรัตน์,,,,,เดอะมอลล์งามวงศ์วาน (Gourmet Market) ถ.งามวงศ์วาน ต.บางเขน อ.เมือง จ.นนทบุรี 11000,เดอะมอลล์งามวงศ์วาน (Gourmet Market) ถ.งามวงศ์วาน ต.บางเขน อ.เมือง จ.นนทบุรี 11000,นนทบุรี,,,,13.8553917,100.5419675,,10.00-15.00,,,DC บางพลี,active,admin,คละสูตรได้ (ครึ่งแพ็ค+ครึ่งแพ็ค) / เปิดไม่ถึงขั้นตํ่า
B2205077,B2205077,PET CLUB สาขา เดอะมอลล์ท่าพระ,PET SHOP,,,พชร ทองเลี่ยมรัตน์,,,,,129 เดอะมอลล์ท่าพระ (Gourmet Market) ถ.รัชดาภิเษก (ท่าพระ-ตากสิน) แขวงบุคคโล เขตธนบุรี จ.กรุงเทพฯ 10600,129 เดอะมอลล์ท่าพระ (Gourmet Market) ถ.รัชดาภิเษก (ท่าพระ-ตากสิน) แขวงบุคคโล เขตธนบุรี จ.กรุงเทพฯ 10600,กรุงเทพฯ,,,,13.7133173,100.4790383,,10.00-15.00,,,,active,admin,คละสูตรได้ (ครึ่งแพ็ค+ครึ่งแพ็ค) / เปิดไม่ถึงขั้นตํ่า
B2205079,B2205079,PET CLUB สาขา เดอะมอลล์บางกะปิ,PET SHOP,,,พชร ทองเลี่ยมรัตน์,,,,,3522 เดอะมอลล์บางกะปิ (Gourmet Market) ถ.ลาดพร้าว แขวงคลองจั่น เขตบางกะปิ จ.กรุงเทพฯ 10240,3522 เดอะมอลล์บางกะปิ (Gourmet Market) ถ.ลาดพร้าว แขวงคลองจั่น เขตบางกะปิ จ.กรุงเทพฯ 10240,กรุงเทพฯ,,,,13.7658531,100.6430697,,10.00-15.00,,,,active,admin,คละสูตรได้ (ครึ่งแพ็ค+ครึ่งแพ็ค) / เปิดไม่ถึงขั้นตํ่า
B2205078,B2205078,PET CLUB สาขา เดอะมอลล์บางแค,PET SHOP,,,พชร ทองเลี่ยมรัตน์,,,,,518 เดอะมอลล์บางแค (Gourmet Market) ถ.เพชรเกษม แขวงบางแคเหนือ เขตบางแค จ.กรุงเทพฯ,518 เดอะมอลล์บางแค (Gourmet Market) ถ.เพชรเกษม แขวงบางแคเหนือ เขตบางแค จ.กรุงเทพฯ,กรุงเทพฯ,,,,13.7137409,100.4076123,,10.00-15.00,,,,active,admin,คละสูตรได้ (ครึ่งแพ็ค+ครึ่งแพ็ค) / เปิดไม่ถึงขั้นตํ่า
B2503009,B2503009,PET CLUB สาขา เทพรักษ์,PET SHOP,,,พชร ทองเลี่ยมรัตน์,,,,,โครงการมาร์เก็ตเพลส เทพรักษ์ 899/5-899/7 ถ.เทพรักษ์ แขวงท่าแร้ง เขตบางเขน จ.กรุงเทพฯ 10220,โครงการมาร์เก็ตเพลส เทพรักษ์ 899/5-899/7 ถ.เทพรักษ์ แขวงท่าแร้ง เขตบางเขน จ.กรุงเทพฯ 10220,กรุงเทพฯ,,,,13.8755136,100.6432042,,,,,,active,admin,คละสูตรได้ (ครึ่งแพ็ค+ครึ่งแพ็ค) / เปิดไม่ถึงขั้นตํ่า
B2205082,B2205082,PET CLUB สาขา เทอมินอล 21,PET SHOP,,,พชร ทองเลี่ยมรัตน์,,,,,อาคารศูนย์การค้าเทอร์มินอล 21 (Gourmet Market) 88 ซ.สุขุมวิท 19 (วัฒนา) ถ.สุขุมวิท แขวงคลองตันเหนือ เขตวัฒนา จ.กรุงเทพฯ 10110,อาคารศูนย์การค้าเทอร์มินอล 21 (Gourmet Market) 88 ซ.สุขุมวิท 19 (วัฒนา) ถ.สุขุมวิท แขวงคลองตันเหนือ เขตวัฒนา จ.กรุงเทพฯ 10110,กรุงเทพฯ,,,,13.7379219,100.5604662,,10.00-15.00,,,,active,admin,คละสูตรได้ (ครึ่งแพ็ค+ครึ่งแพ็ค) / เปิดไม่ถึงขั้นตํ่า
B2403050,B2403050,PET CLUB สาขา เมกาบางนา,PET SHOP,,,พชร ทองเลี่ยมรัตน์,,,,,ศูนย์การค้าเมกาบางนา 39 ม.6 ห้องเลขที่ ดี.พี. 0902 ชั้น พี ถ.บางนา-ตราด ต.บางแก้ว อ.บางพลี จ.สมุทรปราการ 10540,ศูนย์การค้าเมกาบางนา 39 ม.6 ห้องเลขที่ ดี.พี. 0902 ชั้น พี ถ.บางนา-ตราด ต.บางแก้ว อ.บางพลี จ.สมุทรปราการ 10540,สมุทรปราการ,,,,13.6647852,100.6615553,,10.00-15.00,,,,active,admin,คละสูตรได้ (ครึ่งแพ็ค+ครึ่งแพ็ค) / เปิดไม่ถึงขั้นตํ่า
B2205081,B2205081,PET CLUB สาขา เอ็มควอเทีย,PET SHOP,,,พชร ทองเลี่ยมรัตน์,,,,,8 อาคารศุนย์การค้า เอ็มควอเทียร์ (Gourmet Market) ซ.สุขุมวิท 35 (เจริญนิเวศน์) ต.คลองตันเหนือ อ.วัฒนา จ.กรุงเทพฯ10110,8 อาคารศุนย์การค้า เอ็มควอเทียร์ (Gourmet Market) ซ.สุขุมวิท 35 (เจริญนิเวศน์) ต.คลองตันเหนือ อ.วัฒนา จ.กรุงเทพฯ10110,กรุงเทพฯ,,,,13.7325277,100.5696104,,10.00-15.00,,,,active,admin,คละสูตรได้ (ครึ่งแพ็ค+ครึ่งแพ็ค) / เปิดไม่ถึงขั้นตํ่า
B2503011,B2503011,PET CLUB สาขา เอ็มโพเรียม,PET SHOP,,,พชร ทองเลี่ยมรัตน์,,,,,622 ถ.สุขุมวิท แขวงคลองตัน เขตคลองตัน จ.กรุงเทพฯ 10110,622 ถ.สุขุมวิท แขวงคลองตัน เขตคลองตัน จ.กรุงเทพฯ 10110,กรุงเทพฯ,,,,13.7304886,100.5663244,,,,,,active,admin,คละสูตรได้ (ครึ่งแพ็ค+ครึ่งแพ็ค) / เปิดไม่ถึงขั้นตํ่า
B2403053,B2403053,PET CLUB สาขา แจสเออเบิร์น ศรีนครินทร์,PET SHOP,,,พชร ทองเลี่ยมรัตน์,,,,,788 อาคารศูนย์การค้า แจส เออเบิร์น ศรีนครินทร์ ห้องเลขที่ A116 ชั้นที่ 1 ม.5 ต.สำโรงเหนือ อ.เมืองสมุทรปราการ จ.สมุทรปราการ 10270,788 อาคารศูนย์การค้า แจส เออเบิร์น ศรีนครินทร์ ห้องเลขที่ A116 ชั้นที่ 1 ม.5 ต.สำโรงเหนือ อ.เมืองสมุทรปราการ จ.สมุทรปราการ 10270,กรุงเทพฯ,,,,13.6353728,100.6320263,,10.00-15.00,,,,active,admin,คละสูตรได้ (ครึ่งแพ็ค+ครึ่งแพ็ค) / เปิดไม่ถึงขั้นตํ่า
B2403054,B2403054,PET CLUB สาขา แอทยูบางนา,PET SHOP,,,พชร ทองเลี่ยมรัตน์,,,,,"888/8 ม.1 โครงการ แอท ยู พาร์ค สุวรรณภูมิ อาคารเอช ห้องเลขที่ 101,201 ต.ราชาเทวะ อ.บางพลี จ.สมุทรปราการ","888/8 ม.1 โครงการ แอท ยู พาร์ค สุวรรณภูมิ อาคารเอช ห้องเลขที่ 101,201 ต.ราชาเทวะ อ.บางพลี จ.สมุทรปราการ",สมุทรปราการ,,,,13.6321332,100.7160667,,10.00-15.00,,,,active,admin,คละสูตรได้ (ครึ่งแพ็ค+ครึ่งแพ็ค) / เปิดไม่ถึงขั้นตํ่า
B2205090,B2205090,PET MALL สาขา กัลปพฤกษ์,PET SHOP,,,เมธาวี แย้มเมืองไชย,,,,,69 ถ.กัลปพฤกษ์ แขวงบางหว้า เขตภาษีเจริญ จ.กรุงเทพฯ 10160,69 ถ.กัลปพฤกษ์ แขวงบางหว้า เขตภาษีเจริญ จ.กรุงเทพฯ 10160,กรุงเทพฯ,,,,13.69389,100.4334673,,11.00-16.00,,,,active,admin,"ส่วนลดอื่นๆ 3%, คละสูตรได้ (ครึ่งแพ็ค+ครึ่งแพ็ค)"
B2205085,B2205085,PET MALL สาขา ตลาดต้นไม้ชายคา,PET SHOP,,,เมธาวี แย้มเมืองไชย,,,,,194/1 ถ.เพชรเกษม แขวงปากคลองภาษีเจริญ เขตภาษีเจริญ จ.กรุงเทพฯ 10160,194/1 ถ.เพชรเกษม แขวงปากคลองภาษีเจริญ เขตภาษีเจริญ จ.กรุงเทพฯ 10160,กรุงเทพฯ,,,,13.7225986,100.4609281,,11.00-16.00,,,,active,admin,"ส่วนลดอื่นๆ 3%, คละสูตรได้ (ครึ่งแพ็ค+ครึ่งแพ็ค)"
B2205091,B2205091,PET MALL สาขา ตลาดสดธนบุรี,PET SHOP,,,เมธาวี แย้มเมืองไชย,,,,,58 ห้องเลขที่ จี04-จี07 ถ.บรมราชชนนี แขวงศาลาธรรมสพน์ เขตทวีวัฒนา จ.กรุงเทพฯ 10170,58 ห้องเลขที่ จี04-จี07 ถ.บรมราชชนนี แขวงศาลาธรรมสพน์ เขตทวีวัฒนา จ.กรุงเทพฯ 10170,กรุงเทพฯ,,,,13.7760033,100.4076531,,11.00-16.00,,,,active,admin,"ส่วนลดอื่นๆ 3%, คละสูตรได้ (ครึ่งแพ็ค+ครึ่งแพ็ค)"
B2205084,B2205084,PET MALL สาขา ถนนพรานนก-พุทธมณฑลสาย4,PET SHOP,,,เมธาวี แย้มเมืองไชย,,,,,515 ถ.พรานนก-พุทธมณฑลสาย4 แขวงบางพรม เขตตลิ่งชัน จ.กรุงเทพฯ 10170,515 ถ.พรานนก-พุทธมณฑลสาย4 แขวงบางพรม เขตตลิ่งชัน จ.กรุงเทพฯ 10170,กรุงเทพฯ,,,,13.7525945,100.4334425,,11.00-16.00,,,,active,admin,"ส่วนลดอื่นๆ 3%, คละสูตรได้ (ครึ่งแพ็ค+ครึ่งแพ็ค)"
B2205087,B2205087,PET MALL สาขา ทรีโอ,PET SHOP,,,เมธาวี แย้มเมืองไชย,,,,,170/21 ถ.พุทธมณฑลสาย 3 แขวงบางไผ่ เขตบางแค จ.กรุงเทพฯ,170/21 ถ.พุทธมณฑลสาย 3 แขวงบางไผ่ เขตบางแค จ.กรุงเทพฯ,กรุงเทพฯ,,,,13.7455894,100.3641653,,11.00-16.00,,,,active,admin,"ส่วนลดอื่นๆ 3%, คละสูตรได้ (ครึ่งแพ็ค+ครึ่งแพ็ค)"
B2205086,B2205086,PET MALL สาขา สุขาภิบาล 5,PET SHOP,,,เมธาวี แย้มเมืองไชย,,,,,107 ถ.สุขาภิบาล 5 แขวงออเงิน เขตสายไหม จ.กรุงเทพฯ 10220,107 ถ.สุขาภิบาล 5 แขวงออเงิน เขตสายไหม จ.กรุงเทพฯ 10220,กรุงเทพฯ,,,,13.9111634,100.68089,,11.00-16.00,,,,active,admin,"ส่วนลดอื่นๆ 3%, คละสูตรได้ (ครึ่งแพ็ค+ครึ่งแพ็ค)"
B2205089,B2205089,PET MALL สาขา เพลินนารี,PET SHOP,,,เมธาวี แย้มเมืองไชย,,,,,"242,244,246 (ห้อง A104 ตึก A ชั้น 1) ถ.วัชรพล แขวงท่าแร้ง เขตบางเขน จ.กรุงเทพฯ 10220","242,244,246 (ห้อง A104 ตึก A ชั้น 1) ถ.วัชรพล แขวงท่าแร้ง เขตบางเขน จ.กรุงเทพฯ 10220",กรุงเทพฯ,,,,13.8602486,100.6466973,,11.00-16.00,,,,active,admin,"ส่วนลดอื่นๆ 3%, คละสูตรได้ (ครึ่งแพ็ค+ครึ่งแพ็ค)"
B2309020,B2309020,PET MALL สาขา ไทวัสดุ สมุทรปราการ,PET SHOP,,,เมธาวี แย้มเมืองไชย,,,,,6 ม.7 ต.บางเมือง อ.เมืองสมุทรปราการ จ.สมุทรปราการ 10270,6 ม.7 ต.บางเมือง อ.เมืองสมุทรปราการ จ.สมุทรปราการ 10270,สมุทรปราการ,,,,13.6195148,100.6223747,,11.00-16.00,,,,active,admin,"ส่วนลดอื่นๆ 3%, คละสูตรได้ (ครึ่งแพ็ค+ครึ่งแพ็ค)"
B2210036,B2210036,PET TIME สาขา บางพลี,PET SHOP,,,ณัฐชยา ศิริเธียรไชย,,,,,"89 ม.9 ตรงทางลงอุโมงค์ Big C บางพลี
ต.บางพลีใหญ่ อ.บางพลี จ.สมุทรปราการ","89 ม.9 ตรงทางลงอุโมงค์ Big C บางพลี
ต.บางพลีใหญ่ อ.บางพลี จ.สมุทรปราการ",สมุทรปราการ,,,,13.6030751,100.707721,,10.00-15.00,,,,active,admin,
B2210035,B2210035,PET TIME สาขา หนามแดง,PET SHOP,,,ณัฐชยา ศิริเธียรไชย,,,,,25/141 ม.2 ต.บางแก้ว อ.บางพลี จ.สมุทรปราการ,25/141 ม.2 ต.บางแก้ว อ.บางพลี จ.สมุทรปราการ,สมุทรปราการ,,,,13.6520478,100.6750207,,10.00-16.00,,,,active,admin,
B2205123,B2205123,PET TWENTYFOUR,PET SHOP,,,ณัฐชยา ศิริเธียรไชย,,,,,318/5 ถ.ลาดกระบัง แขวงลาดกระบัง เขตลาดกระบัง จ..กรุงเทพฯ 10520,318/5 ถ.ลาดกระบัง แขวงลาดกระบัง เขตลาดกระบัง จ..กรุงเทพฯ 10520,สมุทรปราการ,,,,13.7218148,100.7271805,,10.00-15.00,,,,active,admin,
B2205072,B2205072,PET-JAH เพ็ทจ้า,PET SHOP,,,เมธาวี แย้มเมืองไชย,,,,,9/18 ม.11 ต.บางรักพัฒนา อ.บางบัวทอง จ.นนทบุรี,9/18 ม.11 ต.บางรักพัฒนา อ.บางบัวทอง จ.นนทบุรี,นนทบุรี,,,,13.8876433,100.4009226,,10.00-16.00,,,DC บางพลี,active,admin,
B2407014,B2407014,PETA สาขา BTS ศาลาแดง,PET SHOP,,,พชร ทองเลี่ยมรัตน์,,,,,สถานีศาลาแดง S2-6 ถ.สีลม แขวงสีลม เขตบางรัก จ.กรุงเทพฯ,สถานีศาลาแดง S2-6 ถ.สีลม แขวงสีลม เขตบางรัก จ.กรุงเทพฯ,กรุงเทพฯ,,,,13.7284329,100.5341693,,10.00-15.00,,,,active,admin,คละสูตรได้ (ครึ่งแพ็ค+ครึ่งแพ็ค)
B2403055,B2403055,PETA สาขา BTS สยาม,PET SHOP,,,พชร ทองเลี่ยมรัตน์,,,,,สถานีสยาม (CEN11-1) ถ.พระราม 1 แขวงปทุมวัน เขตปทุมวัน กรุงเทพ 10330,สถานีสยาม (CEN11-1) ถ.พระราม 1 แขวงปทุมวัน เขตปทุมวัน กรุงเทพ 10330,กรุงเทพฯ,,,,13.7456058,100.5341187,,10.00-15.00,,,,active,admin,คละสูตรได้ (ครึ่งแพ็ค+ครึ่งแพ็ค)
B2407015,B2407015,PETA สาขา BTS อารีย์,PET SHOP,,,พชร ทองเลี่ยมรัตน์,,,,,สถานีอารีย์ N5-J ถ.พหลโยธิน แขวงสามเสนใน เขตพญาไท จ.กรุงเทพฯ,สถานีอารีย์ N5-J ถ.พหลโยธิน แขวงสามเสนใน เขตพญาไท จ.กรุงเทพฯ,กรุงเทพฯ,,,,13.779689,100.544646,,10.00-15.00,,,,active,admin,คละสูตรได้ (ครึ่งแพ็ค+ครึ่งแพ็ค)
B2403058,B2403058,PETA สาขา BTS อโศก,PET SHOP,,,พชร ทองเลี่ยมรัตน์,,,,,สถานีอโศก (E4-6) ถ.สุขุมวิท แขวงคลองตัน เขตคลองเตย จ.กรุงเทพ 10110,สถานีอโศก (E4-6) ถ.สุขุมวิท แขวงคลองตัน เขตคลองเตย จ.กรุงเทพ 10110,กรุงเทพฯ,,,,13.7270074,100.5674231,,10.00-15.00,,,,active,admin,คละสูตรได้ (ครึ่งแพ็ค+ครึ่งแพ็ค)
B2407016,B2407016,PETA สาขา BTS อ่อนนุช,PET SHOP,,,พชร ทองเลี่ยมรัตน์,,,,,สถานีอ่อนนุช E9-7 ถ.สุขุมวิท แขวงพระโขนง เขตคลองเตย จ.กรุงเทพฯ,สถานีอ่อนนุช E9-7 ถ.สุขุมวิท แขวงพระโขนง เขตคลองเตย จ.กรุงเทพฯ,กรุงเทพฯ,,,,13.7055123,100.6008805,,10.00-15.00,,,,active,admin,คละสูตรได้ (ครึ่งแพ็ค+ครึ่งแพ็ค)
B2205046,B2205046,PETA สาขา Dog′s paw,PET SHOP,,,พชร ทองเลี่ยมรัตน์,,,,,81 โครงการ Velo (เวโร) ถ.บรมราชชนนี แขวงฉิมพลี เขตตลิ่งชัน จ.กรุงเทพฯ 10170,81 โครงการ Velo (เวโร) ถ.บรมราชชนนี แขวงฉิมพลี เขตตลิ่งชัน จ.กรุงเทพฯ 10170,กรุงเทพฯ,,,,13.7794799,100.4363937,,10.00-17.00,,,,active,admin,คละสูตรได้ (ครึ่งแพ็ค+ครึ่งแพ็ค)
B2407017,B2407017,PETA สาขา MRT พระราม9,PET SHOP,,,พชร ทองเลี่ยมรัตน์,,,,,สถานีพระราม 9 ยูนิตที่ 17 ถ.พระราม9 แขวงห้วยขวาง เขตห้วยขวาง จ.กรุงเทพฯ,สถานีพระราม 9 ยูนิตที่ 17 ถ.พระราม9 แขวงห้วยขวาง เขตห้วยขวาง จ.กรุงเทพฯ,กรุงเทพฯ,,,,13.7553944,100.5704254,,10.00-15.00,,,,active,admin,คละสูตรได้ (ครึ่งแพ็ค+ครึ่งแพ็ค)
B2410051,B2410051,PETA สาขา THE PARQ,PET SHOP,,,พชร ทองเลี่ยมรัตน์,,,,,ห้องเลขที่ OPB101 ชั้น ฺB1 ตั้งอยู่ 88 ถ.รัชดาภิเษก แขวงคลองเตย เขตคลองเตย จ.กรุงเทพ,ห้องเลขที่ OPB101 ชั้น ฺB1 ตั้งอยู่ 88 ถ.รัชดาภิเษก แขวงคลองเตย เขตคลองเตย จ.กรุงเทพ,กรุงเทพฯ,,,,13.7212551,100.5583281,,,,,,active,admin,คละสูตรได้ (ครึ่งแพ็ค+ครึ่งแพ็ค)
B2205066,B2205066,PETA สาขา The Explace กาญจนาภิเษก,PET SHOP,,,พชร ทองเลี่ยมรัตน์,,,,,60 โครงการ The Explace ถ.กาญจนาภิเษก แขวงบางแค เขตบางแค จ.กรุงเทพฯ 10160,60 โครงการ The Explace ถ.กาญจนาภิเษก แขวงบางแค เขตบางแค จ.กรุงเทพฯ 10160,กรุงเทพฯ,,,,13.6940951,100.4082338,,10.00-17.00,,,,active,admin,คละสูตรได้ (ครึ่งแพ็ค+ครึ่งแพ็ค)
B2210003,B2210003,PETA สาขา มหาชัย,PET SHOP,,,พชร ทองเลี่ยมรัตน์,,,,,1300/708 ถ.นรราชอุทิศ ต.มหาชัย อ.เมือง จ.สมุทรสาคร 74000,1300/708 ถ.นรราชอุทิศ ต.มหาชัย อ.เมือง จ.สมุทรสาคร 74000,สมุทรสาคร,,,,13.5539977,100.2805638,,10.00-17.00,,,DC บางพลี,active,admin,คละสูตรได้ (ครึ่งแพ็ค+ครึ่งแพ็ค)
B2303037,B2303037,PETA สาขา สีลม-นราธิวาสฯ,PET SHOP,,,พชร ทองเลี่ยมรัตน์,,,,,118/2 ม.1 แขวงทุ่งสองห้อง เขตหลักสี่ จ.กรุงเทพฯ,118/2 ม.1 แขวงทุ่งสองห้อง เขตหลักสี่ จ.กรุงเทพฯ,กรุงเทพฯ,,,,13.8610909,100.5571133,,10.00-17.00,,,,active,admin,คละสูตรได้ (ครึ่งแพ็ค+ครึ่งแพ็ค)
B2205051,B2205051,PETA สาขา สุขุมวิท 71,PET SHOP,,,พชร ทองเลี่ยมรัตน์,,,,,952/1 ถ.สุขุมวิท 71 แขวงคลองตันเหนือ เขตวัฒนา จ.กรุงเทพฯ 10110,952/1 ถ.สุขุมวิท 71 แขวงคลองตันเหนือ เขตวัฒนา จ.กรุงเทพฯ 10110,กรุงเทพฯ,,,,13.7308883,100.5968432,,10.00-17.00,,,,active,admin,คละสูตรได้ (ครึ่งแพ็ค+ครึ่งแพ็ค)
B2205050,B2205050,PETA สาขา เกตเวย์เอกมัย,PET SHOP,,,พชร ทองเลี่ยมรัตน์,,,,,982/22 ศูนย์การค้าเกตเวย์เอกมัย ชั้น B (ห้อง 114-115) ถ.สุขุมวิท แขวงพระโขนง เขตคลองเตย จ.กรุงเทพฯ 10110,982/22 ศูนย์การค้าเกตเวย์เอกมัย ชั้น B (ห้อง 114-115) ถ.สุขุมวิท แขวงพระโขนง เขตคลองเตย จ.กรุงเทพฯ 10110,กรุงเทพฯ,,,,13.709591,100.601366,,10.00-17.00,,,,active,admin,คละสูตรได้ (ครึ่งแพ็ค+ครึ่งแพ็ค)
B2205045,B2205045,PETA สาขา เดอะมอลล์ งามวงศ์วาน,PET SHOP,,,พชร ทองเลี่ยมรัตน์,,,,,30/39-50 ม.2 เดอะมอลล์งามวงศ์วาน ห้องเลขที่ 401 ชั้น 4 ถ.งามวงศ์วาน ต.บางเขน อ.เมือง จ.นนทบุรี 11000,30/39-50 ม.2 เดอะมอลล์งามวงศ์วาน ห้องเลขที่ 401 ชั้น 4 ถ.งามวงศ์วาน ต.บางเขน อ.เมือง จ.นนทบุรี 11000,นนทบุรี,,,,13.8561161,100.5267671,,10.00-17.00,,,DC บางพลี,active,admin,คละสูตรได้ (ครึ่งแพ็ค+ครึ่งแพ็ค)
B2205067,B2205067,PETA สาขา เดอะเซอร์เคิล ราชพฤกษ์,PET SHOP,,,พชร ทองเลี่ยมรัตน์,,,,,39 ถ.ราชพฤกษ์ แขวงบางระมาด เขตตลิ่งชัน จ.กรุงเทพฯ 10170,39 ถ.ราชพฤกษ์ แขวงบางระมาด เขตตลิ่งชัน จ.กรุงเทพฯ 10170,กรุงเทพฯ,,,,13.7583016,100.448364,,10.00-17.00,,,,active,admin,คละสูตรได้ (ครึ่งแพ็ค+ครึ่งแพ็ค)
B2205620,B2205620,PETCENTER COMPLEX,PET SHOP,,,ชาตรี ไข่แก้ว,,,,,130 ม.6 ต.น้ำน้อย อ.หาดใหญ่ จ.สงขลา,130 ม.6 ต.น้ำน้อย อ.หาดใหญ่ จ.สงขลา,สงขลา,,,,7.1245599,100.5455389,,09.00-18.00,,,HUB หาดใหญ่,active,admin,
B2309011,B2309011,PETKUB,PET SHOP,,,อรุณวดี กุลจรัสเดโช,,,,,64/7 ตรอก 9 (ซ.4 ถ.บางแสนสาย 2) ต.แสนสุข อ.เมืองชลบุรี จ.ชลบุรี,64/7 ตรอก 9 (ซ.4 ถ.บางแสนสาย 2) ต.แสนสุข อ.เมืองชลบุรี จ.ชลบุรี,ชลบุรี,,,,13.2880752,100.9162249,,10.00-17.00,,,DC บางพลี,active,admin,
B2205094,B2205094,PETMAK สาขา ชะอำ,PET SHOP,,,บุณยานุช นรมาตย์,,,,,47/2 ถ.ศรีสกุลไทย ต.ชะอำ อ.ชะอำ จ.เพชรบุรี,47/2 ถ.ศรีสกุลไทย ต.ชะอำ อ.ชะอำ จ.เพชรบุรี,เพชรบุรี,,,,12.799217,99.9745605,,09.30-17.00,,,HUB ปราณบุรี,active,admin,"Im ลด 3% ส่วนลดอื่นๆ, (ร้านค้าในเครือเผ่าภาคิน)"
B2210083,B2210083,PETMAK สาขา ชะอำ,PET SHOP,,,บุณยานุช นรมาตย์,,,,,47/2-4 โครงการนราธิปฃะอำ ถ.ศรีกุลไทย อ.ชะอำ จ.เพชรบุรี,47/2-4 โครงการนราธิปฃะอำ ถ.ศรีกุลไทย อ.ชะอำ จ.เพชรบุรี,เพชรบุรี,,,,12.7031136,99.9093133,,09.30-17.00,,,HUB ปราณบุรี,active,admin,"Im ลด 3% ส่วนลดอื่นๆ, (ร้านค้าในเครือเผ่าภาคิน)"
B2205093,B2205093,PETMAK สาขา พีเพิล พาร์ค,PET SHOP,,,เมธาวี แย้มเมืองไชย,,,,,486 (ตึกE1 ชั้น 1) โครงการพีเพิลพาร์ค ถ.อ่อนนุช แขวงสวนหลวง เขตสวนหลวง จ.กรุงเทพฯ,486 (ตึกE1 ชั้น 1) โครงการพีเพิลพาร์ค ถ.อ่อนนุช แขวงสวนหลวง เขตสวนหลวง จ.กรุงเทพฯ,กรุงเทพฯ,,,,13.7116868,100.6081389,,11.00-16.00,,,,active,admin,"ส่วนลดอื่นๆ 3%, คละสูตรได้ (ครึ่งแพ็ค+ครึ่งแพ็ค)"
B2205381,B2205381,PETMAK สาขา แมคโครหัวหิน,PET SHOP,,,บุณยานุช นรมาตย์,,,,,58/164 ซ.หมู่บ้านบ่อฝ้าย ต.หัวหิน อ.หัวหิน จ.ประจวบคีรีขันธ์,58/164 ซ.หมู่บ้านบ่อฝ้าย ต.หัวหิน อ.หัวหิน จ.ประจวบคีรีขันธ์,ประจวบคีรีขันธ์,,,,12.6177122,99.9487777,,09.00-17.00,,,HUB ปราณบุรี,active,admin,"Im ลด 3% ส่วนลดอื่นๆ, (ร้านค้าในเครือเผ่าภาคิน)"
B2304013,B2304013,PETMAK สาขา แมคโครหัวหิน,PET SHOP,,,บุณยานุช นรมาตย์,,,,,58/164 ซ.หมู่บ้านบ่อฝ้าย ต.หัวหิน อ.หัวหิน จ.ประจวบคีรีขันธ์,58/164 ซ.หมู่บ้านบ่อฝ้าย ต.หัวหิน อ.หัวหิน จ.ประจวบคีรีขันธ์,ประจวบคีรีขันธ์,,,,12.6177122,99.9487777,,10.00-17.00,,,HUB ปราณบุรี,active,admin,"Im ลด 3% ส่วนลดอื่นๆ, (ร้านค้าในเครือเผ่าภาคิน)"
B2411014,B2411014,PETMALL สาขาสะพานเจษฎา,PET SHOP,,,เมธาวี แย้มเมืองไชย,,,,,154/11 ม.9 ต.บางกร่าง อ.เมืองนนทบุรี จ.นนทบุรี 11000,154/11 ม.9 ต.บางกร่าง อ.เมืองนนทบุรี จ.นนทบุรี 11000,นนทบุรี,,,,13.8435084,100.4608757,,,,,,active,admin,"ส่วนลดอื่นๆ 3%, คละสูตรได้ (ครึ่งแพ็ค+ครึ่งแพ็ค)"
B2302006,B2302006,PET′N ME DC (SCDC1),PET SHOP,,,พชร ทองเลี่ยมรัตน์,,,,,DC ถ.คลองส่งน้ำ ต.บางปลา อ.บางพลี จ.สมุทรปราการ,DC ถ.คลองส่งน้ำ ต.บางปลา อ.บางพลี จ.สมุทรปราการ,สมุทรปราการ,,,,13.5530401,100.7539011,,,,,,active,admin,คละสูตรได้ (ครึ่งแพ็ค+ครึ่งแพ็ค)
B2210015,B2210015,PET′N ME สาขา วงศ์สว่าง,PET SHOP,,,พชร ทองเลี่ยมรัตน์,,,,,888 ถ.วงศ์สว่าง แขวงวงศ์สว่าง เขตบางซื่อ จ.กรุงเทพฯ,888 ถ.วงศ์สว่าง แขวงวงศ์สว่าง เขตบางซื่อ จ.กรุงเทพฯ,กรุงเทพฯ,,,,13.8258194,100.5285129,,10.00-13.00,,,,active,admin,คละสูตรได้ (ครึ่งแพ็ค+ครึ่งแพ็ค)
B2212003,B2212003,PET′N ME สาขา สาธุประดิษฐ์,PET SHOP,,,พชร ทองเลี่ยมรัตน์,,,,,600/145 ถ.สาธุประดิษฐ์ แขวงบางโพพาง เขตยานนาวา จ.กรุงเทพ 10120,600/145 ถ.สาธุประดิษฐ์ แขวงบางโพพาง เขตยานนาวา จ.กรุงเทพ 10120,กรุงเทพฯ,,,,13.6862128,100.5325879,,10.00-13.00,,,,active,admin,คละสูตรได้ (ครึ่งแพ็ค+ครึ่งแพ็ค)
B2403023,B2403023,PET′N ME สาขา เซ็นทรัลปิ่นเกล้า,PET SHOP,,,พชร ทองเลี่ยมรัตน์,,,,,เลขที่ 7/222 ห้อง B16/1 ชั้นที่ B ถ.บรมราชชนนี แขวงอรุณอมรินทร์ เขตบางกอกน้อย จ.กรุงเทพฯ 10700,เลขที่ 7/222 ห้อง B16/1 ชั้นที่ B ถ.บรมราชชนนี แขวงอรุณอมรินทร์ เขตบางกอกน้อย จ.กรุงเทพฯ 10700,กรุงเทพฯ,,,,13.7769808,100.4789555,,10.00-13.00,,,,active,admin,คละสูตรได้ (ครึ่งแพ็ค+ครึ่งแพ็ค)
B2403021,B2403021,PET′N ME สาขา เซ็นทรัลพระราม 2,PET SHOP,,,พชร ทองเลี่ยมรัตน์,,,,,เลขที่ 160 ถ.พระราม 2 แขวงแสมดำ เขตบางขุนเทียน จ.กรุงเทพฯ 10150,เลขที่ 160 ถ.พระราม 2 แขวงแสมดำ เขตบางขุนเทียน จ.กรุงเทพฯ 10150,กรุงเทพฯ,,,,13.6570473,100.4310584,,10.00-13.00,,,,active,admin,คละสูตรได้ (ครึ่งแพ็ค+ครึ่งแพ็ค)
B2311022,B2311022,PET′N ME สาขา เซ็นทรัลเวสต์วิลล์,PET SHOP,,,พชร ทองเลี่ยมรัตน์,,,,,999 ม.5 แขวงมหาสวัสดิ์ เขตบางกรวย จ.นนทบุรี 11130,999 ม.5 แขวงมหาสวัสดิ์ เขตบางกรวย จ.นนทบุรี 11130,นนทบุรี,,,,13.8122511,100.4460142,,10.00-13.00,,,DC บางพลี,active,admin,คละสูตรได้ (ครึ่งแพ็ค+ครึ่งแพ็ค)
B2205236,B2205236,PET′N ME สาขา เซ็นทรัลเวสเกต,PET SHOP,,,พชร ทองเลี่ยมรัตน์,,,,,"199/3 ม.6 เซ็นทรัล พลาซ่า เวสต์เกต (Central Plaza Westgate)
ต.เสาธงหิน อ.บางใหญ่ จ.นนทบุรี 11140","199/3 ม.6 เซ็นทรัล พลาซ่า เวสต์เกต (Central Plaza Westgate)
ต.เสาธงหิน อ.บางใหญ่ จ.นนทบุรี 11140",นนทบุรี,,,,13.8774011,100.410596,,10.00-13.00,,,DC บางพลี,active,admin,คละสูตรได้ (ครึ่งแพ็ค+ครึ่งแพ็ค)
B2212002,B2212002,PET′N ME สาขา โรบินสัน ราชพฤกษ์,PET SHOP,,,พชร ทองเลี่ยมรัตน์,,,,,19/11 ม.4 ต.คลองข่อย อ.ปากเกร็ด จ.นนทบุรี 11120,19/11 ม.4 ต.คลองข่อย อ.ปากเกร็ด จ.นนทบุรี 11120,นนทบุรี,,,,13.9395331,100.4039932,,10.00-13.00,,,DC บางพลี,active,admin,คละสูตรได้ (ครึ่งแพ็ค+ครึ่งแพ็ค)
B2205235,B2205235,PET′N ME สำนักงานใหญ่,PET SHOP,,,พชร ทองเลี่ยมรัตน์,,,,,** เปิดหน้าบัญชีไว้ไม่ได้ส่งของ **,** เปิดหน้าบัญชีไว้ไม่ได้ส่งของ **,นนทบุรี,,,,,,,,,,,active,admin,คละสูตรได้ (ครึ่งแพ็ค+ครึ่งแพ็ค)
B2205570,B2205570,PIPC,PET SHOP,,,สุวภัทร เพ็งกลางเดือน,,,,,191 ม.7 ต.ศรีสุนทร อ.ถลาง จ.ภูเก็ต,191 ม.7 ต.ศรีสุนทร อ.ถลาง จ.ภูเก็ต,ภูเก็ต,,,,7.9794401,98.3376248,,09.00-18.00,,,HUB พุนพิน,active,admin,
B2305010,B2305010,PK HAPPYCOON (พีเค แฮปปี้คูน),FARM,,,บริษัท,,,,,88/8 ม.5 ต.เขาแร้ง อ.ราชบุรี จ.ราชบุรี,88/8 ม.5 ต.เขาแร้ง อ.ราชบุรี จ.ราชบุรี,ราชบุรี,,,,13.6177775,99.7567161,,,,,DC บางพลี,active,admin,
B2407050,B2407050,PP Chaleun (พีพี จะเล็ม),PET SHOP,,,บริษัท,,,,,พูนสวัสดิ์ ขนส่งช้างคู้ 6/1 ม.1 ต.หนองกอมเกาะ อ.เมือง จ.หนองคาย 43000,พูนสวัสดิ์ ขนส่งช้างคู้ 6/1 ม.1 ต.หนองกอมเกาะ อ.เมือง จ.หนองคาย 43000,หนองคาย,,,,17.8397466,102.7106394,,09.00-18.30,,,HUB อุดรธานี,active,admin,"ซื้อครบ 30,000 ได้รับส่วนลด 2%"
B2308022,B2308022,PP Pet Store (บริษัท พีพี เพ็ท สโตร์ จำกัด),PET SHOP,,,สุวภัทร เพ็งกลางเดือน,,,,,24/1 ถ.พูนผล ต.ตลาดเหนือ อ.เมืองภูเก็ต จ.ภูเก็ต 83000,24/1 ถ.พูนผล ต.ตลาดเหนือ อ.เมืองภูเก็ต จ.ภูเก็ต 83000,ภูเก็ต,,,,7.8777124,98.3870039,,10.00-17.00,,,HUB พุนพิน,active,admin,
B2205293,B2205293,PUNPUN PETLAND (ปันปันเพ็ทแลนด์),PET SHOP,,,บุณยานุช นรมาตย์,,,,,25/11 ถ.พระพันวษา ต.ท่าพี่เลี้ยง อ.เมือง จ.สุพรรณบุรี,25/11 ถ.พระพันวษา ต.ท่าพี่เลี้ยง อ.เมือง จ.สุพรรณบุรี,สุพรรณบุรี,,,,14.4723434,100.1167723,,09.00-17.00,,,HUB อยุธยา,active,admin,
B2210038,B2210038,Party Pet Shop (ปาร์ตี้ เพ็ท ช็อป),PET SHOP,,,ณัฐชยา ศิริเธียรไชย,,,,,5/1-2 ถ.รามคำแหง 2 แขวงดอกไม้ เขตประเวศ จ.กรุงเทพฯ 10250,5/1-2 ถ.รามคำแหง 2 แขวงดอกไม้ เขตประเวศ จ.กรุงเทพฯ 10250,กรุงเทพฯ,,,,13.6751019,100.6857126,,10.00-15.00,,,,active,admin,
B2307011,B2307011,Pet & Co. ห้อง 110/1,PET SHOP,,,สุวภัทร เพ็งกลางเดือน,,,,,2/23 ถ.ดีบุก ต.ตลาดใหญ่ อ.เมืองภูเก็ต จ.ภูเก็ต 83000,2/23 ถ.ดีบุก ต.ตลาดใหญ่ อ.เมืองภูเก็ต จ.ภูเก็ต 83000,ภูเก็ต,,,,7.8862322,98.3917845,,09.00-19.30,,,HUB พุนพิน,active,admin,
B2205137,B2205137,Pet Corner,PET SHOP,,,ธันย์ชนก พรอำนวยทรัพย์,,,,,"22,24 ซ.ทวีวัฒนา9 ถ.เลียบคลองทวีวัฒนา แขวงทวีวัฒนา เขตทวีวัฒนา จ.กรุงเทพฯ","22,24 ซ.ทวีวัฒนา9 ถ.เลียบคลองทวีวัฒนา แขวงทวีวัฒนา เขตทวีวัฒนา จ.กรุงเทพฯ",กรุงเทพฯ,,,,13.7430764,100.3550962,,10.00-15.00,,,,active,admin,ต้องมีเด็กติดรถ / ส่วนลดอื่นๆ 2%
B2205138,B2205138,Pet Corner,PET SHOP,,,ธันย์ชนก พรอำนวยทรัพย์,,,,,69/84 ซ.ทวีวัฒนา 9 แขวงทวีวัฒนา เขตทวีวัฒนา จ.กรุงเทพฯ,69/84 ซ.ทวีวัฒนา 9 แขวงทวีวัฒนา เขตทวีวัฒนา จ.กรุงเทพฯ,กรุงเทพฯ,,,,13.7429071,100.3539386,,10.00-15.00,,,,active,admin,ต้องมีเด็กติดรถ / ส่วนลดอื่นๆ 2%
B2205187,B2205187,Pet Enjoy สาขา Food Villa,PET SHOP,,,เมธาวี แย้มเมืองไชย,,,,,77 ม.7 ถ.ราชพฤกษ์ แขวงบางระมาด เขตตลิ่งชัน จ.กรุงเทพฯ,77 ม.7 ถ.ราชพฤกษ์ แขวงบางระมาด เขตตลิ่งชัน จ.กรุงเทพฯ,กรุงเทพฯ,,,,13.7726068,100.4447939,,10.00-17.00,,,,active,admin,
B2205188,B2205188,Pet Enjoy สาขา สะพานเจษฎาบดินทร์ฯ,PET SHOP,,,เมธาวี แย้มเมืองไชย,,,,,154 ต.บางกร่าง อ.เมือง จ.นนทบุรี 11000,154 ต.บางกร่าง อ.เมือง จ.นนทบุรี 11000,นนทบุรี,,,,13.8398551,100.4496177,,10.00-17.00,,,DC บางพลี,active,admin,
B2505055,B2505055,Pet Harbour (เพ็ท ฮาร์เบอร์),PET SHOP,,,เมธาวี แย้มเมืองไชย,,,,,89 ถ.บรมราชชนนี แขวงศาลาธรรมสพน์ เขตทวีวัฒนา จ.กรุงเทพฯ,89 ถ.บรมราชชนนี แขวงศาลาธรรมสพน์ เขตทวีวัฒนา จ.กรุงเทพฯ,กรุงเทพฯ,,,,,,,,,,,active,admin,
B2310023,B2310023,Pet House Shop (เพ็ท เฮาส์),PET SHOP,,,อรุณวดี กุลจรัสเดโช,,,,,53 ถ.บางแสนสาย 4 ใต้ ต.แสนสุข อ.เมืองชลบุรี จ.ชลบุรี 20130,53 ถ.บางแสนสาย 4 ใต้ ต.แสนสุข อ.เมืองชลบุรี จ.ชลบุรี 20130,ชลบุรี,,,,13.2828525,100.9288632,,10.00-17.00,,,DC บางพลี,active,admin,
B2410044,B2410044,Pet House สาขา คุ้มเกล้า,PET SHOP,,,นฤทัย สุโพเคน,,,,,178 ถ.คุ้มเกล้า แขวงแสนแสบ เขตมีนบุรี กรุงเทพฯ 10510,178 ถ.คุ้มเกล้า แขวงแสนแสบ เขตมีนบุรี กรุงเทพฯ 10510,กรุงเทพฯ,,,,,,,,,,,active,admin,ต้องมีเด็กติดรถ
B2310033,B2310033,Pet House สาขา โกดัง,PET SHOP,,,นฤทัย สุโพเคน,,,,,40/49 ซ.งามวงศ์วาน47 แยก26 (ชินเขต2/24) แขวงทุ่งสองห้อง เขตหลักสี่ จ.กรุงเทพฯ 10210,40/49 ซ.งามวงศ์วาน47 แยก26 (ชินเขต2/24) แขวงทุ่งสองห้อง เขตหลักสี่ จ.กรุงเทพฯ 10210,กรุงเทพฯ,,,,13.7971742,100.7755308,,10.00-17.00,,,,active,admin,ต้องมีเด็กติดรถ
B2410009,B2410009,Pet Lap Petshop (เพ็ทแลพ เพ็ทช็อป) สาขา มหาชัย,PET SHOP,,,ธันย์ชนก พรอำนวยทรัพย์,,,,,12 ห้อง A10-A13 โซน A ต.นาดี อ.เมือง จ.สมุทรสาคร 74000,12 ห้อง A10-A13 โซน A ต.นาดี อ.เมือง จ.สมุทรสาคร 74000,สมุทรสาคร,,,,13.680236,100.3726387,,10.00-17.00,,,DC บางพลี,active,admin,ต้องมีเด็กติดรถ
B2210037,B2210037,Pet Lap Petshop (เพ็ทแลพ เพ็ทช็อป) สาขา โกดังหนองแขม,PET SHOP,,,ธันย์ชนก พรอำนวยทรัพย์,,,,,3/19 ถ.เลียบคลองภาษีเจริญฝั่งใต้ ซ.3 แขวงหนองแขม เขตหนองแขม กรุงเทพฯ 10160,3/19 ถ.เลียบคลองภาษีเจริญฝั่งใต้ ซ.3 แขวงหนองแขม เขตหนองแขม กรุงเทพฯ 10160,กรุงเทพฯ,,,,13.6796641,100.3539115,,10.00-17.00,,,,active,admin,ต้องมีเด็กติดรถ
B2501024,B2501024,Pet Lover Centre สาขา 101 True Digital Park,PET SHOP,,,ณัฐชยา ศิริเธียรไชย,,,,,เลขที่ 101 อาคาร วัน-โอ-วัน ทรูดิจิทัล พาร์ค ชั้น ที่ B2 ห้องเลขที่ B2-01-B2-02 ถ.สุขุมวิท แขวงบางจาก เขตพระโขนง จ.กรุงเทพฯ,เลขที่ 101 อาคาร วัน-โอ-วัน ทรูดิจิทัล พาร์ค ชั้น ที่ B2 ห้องเลขที่ B2-01-B2-02 ถ.สุขุมวิท แขวงบางจาก เขตพระโขนง จ.กรุงเทพฯ,กรุงเทพฯ,,,,,,,,,,,active,admin,คละสูตรได้ (ครึ่งแพ็ค+ครึ่งแพ็ค)
B2205167,B2205167,Pet Lover Centre สาขา CDC,PET SHOP,,,ณัฐชยา ศิริเธียรไชย,,,,,888 ถ.ประดิษฐ์มนูธรรม แขวงคลองจั่น เขตบางกะปิ จ.กรุงเทพฯ 10240,888 ถ.ประดิษฐ์มนูธรรม แขวงคลองจั่น เขตบางกะปิ จ.กรุงเทพฯ 10240,กรุงเทพฯ,,,,13.8041364,100.6174927,,11.00-17.00,,,,active,admin,คละสูตรได้ (ครึ่งแพ็ค+ครึ่งแพ็ค)
B2408005,B2408005,Pet Lover Centre สาขา Esplanade,PET SHOP,,,ณัฐชยา ศิริเธียรไชย,,,,,เลขที่ 99 ชั้น B1 ห้องเลขที่ ESP01LS003 ถ.รัชดาภิเษก แขวงดินแดง เขตดินแดง จ.กรุงเทพฯ,เลขที่ 99 ชั้น B1 ห้องเลขที่ ESP01LS003 ถ.รัชดาภิเษก แขวงดินแดง เขตดินแดง จ.กรุงเทพฯ,กรุงเทพฯ,,,,13.757562,100.565023,,11.00-17.00,,,,active,admin,คละสูตรได้ (ครึ่งแพ็ค+ครึ่งแพ็ค)
B2311016,B2311016,Pet Lover Centre สาขา PTT ติวานนท์,PET SHOP,,,ณัฐชยา ศิริเธียรไชย,,,,,83/3 ห้อง B3B4 ม.2 ตำบลบ้านใหม่ อ.ปากเกร็ด จ.นนทบุรี 11120,83/3 ห้อง B3B4 ม.2 ตำบลบ้านใหม่ อ.ปากเกร็ด จ.นนทบุรี 11120,นนทบุรี,,,,13.9177031,100.4846292,,11.00-17.00,,,DC บางพลี,active,admin,คละสูตรได้ (ครึ่งแพ็ค+ครึ่งแพ็ค)
B2408006,B2408006,Pet Lover Centre สาขา SB ราชพฤกษ์,PET SHOP,,,ณัฐชยา ศิริเธียรไชย,,,,,555/9 อาคาร B ชั้นที่ 1 ห้องเลขที่ 116 ม.1 ถ.ราชพฤกษ์ ต.บางขนุน อ.บางกรวย จ.นนทบุรี,555/9 อาคาร B ชั้นที่ 1 ห้องเลขที่ 116 ม.1 ถ.ราชพฤกษ์ ต.บางขนุน อ.บางกรวย จ.นนทบุรี,นนทบุรี,,,,13.8092962,100.4515213,,11.00-17.00,,,DC บางพลี,active,admin,คละสูตรได้ (ครึ่งแพ็ค+ครึ่งแพ็ค)
B2407022,B2407022,Pet Lover Centre สาขา The Nine Center พระราม9,PET SHOP,,,ณัฐชยา ศิริเธียรไชย,,,,,"เลขที่ 999/4 อาคารE ชั้นที่ 1 ห้องเลขที่ ES001/00,ES001 ถ.พระราม 9 แขวงพัฒนาการ เขตสวนหลวง จ.กรุงเทพฯ","เลขที่ 999/4 อาคารE ชั้นที่ 1 ห้องเลขที่ ES001/00,ES001 ถ.พระราม 9 แขวงพัฒนาการ เขตสวนหลวง จ.กรุงเทพฯ",กรุงเทพฯ,,,,13.7534872,100.6308014,,11.00-17.00,,,,active,admin,คละสูตรได้ (ครึ่งแพ็ค+ครึ่งแพ็ค)
B2408019,B2408019,Pet Lover Centre สาขา ชานแอทดิอเวนิว แจ้งวัฒนะ,PET SHOP,,,ณัฐชยา ศิริเธียรไชย,,,,,เลขที่ 104/6 อาคาร F ห้องเลขที่ F125 F126 ถ.แจ้งวัฒนะ แขวงทุ่งสองห้อง เขตหลักสี่ กรุงเทพฯ 10210,เลขที่ 104/6 อาคาร F ห้องเลขที่ F125 F126 ถ.แจ้งวัฒนะ แขวงทุ่งสองห้อง เขตหลักสี่ กรุงเทพฯ 10210,กรุงเทพฯ,,,,13.8947712,100.5575883,,11.00-17.00,,,,active,admin,คละสูตรได้ (ครึ่งแพ็ค+ครึ่งแพ็ค)
B2407023,B2407023,Pet Lover Centre สาขา ทองหล่อ,PET SHOP,,,ณัฐชยา ศิริเธียรไชย,,,,,58 ถ.สุขุมวิท 55 แขวงคลองตันเหนือ เขตวัฒนา จ.กรุงเทพฯ,58 ถ.สุขุมวิท 55 แขวงคลองตันเหนือ เขตวัฒนา จ.กรุงเทพฯ,กรุงเทพฯ,,,,13.7282856,100.5794808,,11.00-17.00,,,,active,admin,คละสูตรได้ (ครึ่งแพ็ค+ครึ่งแพ็ค)
B2504011,B2504011,Pet Lover Centre สาขา ท็อปส์ราษฎร์พัฒนา,PET SHOP,,,ณัฐชยา ศิริเธียรไชย,,,,,263 ถ.ราษฎร์พัฒนา แขวงราษฎร์พัฒนา เขตสะพานสูง จ.กรุงเทพฯ 10240,263 ถ.ราษฎร์พัฒนา แขวงราษฎร์พัฒนา เขตสะพานสูง จ.กรุงเทพฯ 10240,กรุงเทพฯ,,,,,,,,,,,active,admin,คละสูตรได้ (ครึ่งแพ็ค+ครึ่งแพ็ค)
B2505015,B2505015,Pet Lover Centre สาขา ท็อปส์ราษฎร์พัฒนา,PET SHOP,,,ณัฐชยา ศิริเธียรไชย,,,,,263 ถ.ราษฎร์พัฒนา แขวงราษฎร์พัฒนา เขตสะพานสูง จ.กรุงเทพฯ 10240,263 ถ.ราษฎร์พัฒนา แขวงราษฎร์พัฒนา เขตสะพานสูง จ.กรุงเทพฯ 10240,กรุงเทพฯ,,,,13.77325,100.7064722,,,,,,active,admin,คละสูตรได้ (ครึ่งแพ็ค+ครึ่งแพ็ค)
B2408007,B2408007,Pet Lover Centre สาขา วิคตอรี่โมนูเม้น,PET SHOP,,,ณัฐชยา ศิริเธียรไชย,,,,,เลขที่ 15 ชั้นที่ 2 ห้องเลขที่ 213 ถ.พญาไท เขตราชเทวี แขวงถนนพญาไท จ.กรุงเทพฯ,เลขที่ 15 ชั้นที่ 2 ห้องเลขที่ 213 ถ.พญาไท เขตราชเทวี แขวงถนนพญาไท จ.กรุงเทพฯ,นนทบุรี,,,,13.7537591,100.5319615,,11.00-17.00,,,DC บางพลี,active,admin,คละสูตรได้ (ครึ่งแพ็ค+ครึ่งแพ็ค)
B2310030,B2310030,Pet Lover Centre สาขา สุขุมวิท 33,PET SHOP,,,ณัฐชยา ศิริเธียรไชย,,,,,595/1-2 สุขุมวิท33/1 เเขวงคลองตันเหนือ เขตวัฒนา กรุงเทพฯ 10110,595/1-2 สุขุมวิท33/1 เเขวงคลองตันเหนือ เขตวัฒนา กรุงเทพฯ 10110,กรุงเทพฯ,,,,13.7327271,100.5685402,,11.00-17.00,,,,active,admin,คละสูตรได้ (ครึ่งแพ็ค+ครึ่งแพ็ค)
B2407020,B2407020,Pet Lover Centre สาขา เซ็นจูรี่,PET SHOP,,,ณัฐชยา ศิริเธียรไชย,,,,,เลขที่ 2089 ชั้นที่ B1 ห้องเลขที่ S26 ถ.สุขุมวิท แขวงพระโขนงเหนือ เขตวัฒนา จ.กรุงเทพฯ,เลขที่ 2089 ชั้นที่ B1 ห้องเลขที่ S26 ถ.สุขุมวิท แขวงพระโขนงเหนือ เขตวัฒนา จ.กรุงเทพฯ,กรุงเทพฯ,,,,13.7131282,100.5940319,,11.00-17.00,,,,active,admin,คละสูตรได้ (ครึ่งแพ็ค+ครึ่งแพ็ค)
B2205166,B2205166,Pet Lover Centre สาขา เซ็นทรัล ชลบุรี,PET SHOP,,,ณัฐชยา ศิริเธียรไชย,,,,,"55/88-89, 55/91 ม.1 เซ็นทรัล ชลบุรี (ชั้น G ห้อง G47/1) ถ.สุขุมวิท ต.เสม็ด อ.เมือง จ.ชลบุรี 20000","55/88-89, 55/91 ม.1 เซ็นทรัล ชลบุรี (ชั้น G ห้อง G47/1) ถ.สุขุมวิท ต.เสม็ด อ.เมือง จ.ชลบุรี 20000",ชลบุรี,,,,12.7820176,101.6472306,,11.00-17.00,,,DC บางพลี,active,admin,คละสูตรได้ (ครึ่งแพ็ค+ครึ่งแพ็ค)
B2205165,B2205165,Pet Lover Centre สาขา เซ็นทรัล ศรีราชา,PET SHOP,,,ณัฐชยา ศิริเธียรไชย,,,,,8 เซ็นทรัล ศรีราชา (ชั้น LG ห้องเลขที่ LG05) ถ.สุขุมวิท ต.ศรีราชา อ.ศรีราชา จ.ชลบุรี 20110,8 เซ็นทรัล ศรีราชา (ชั้น LG ห้องเลขที่ LG05) ถ.สุขุมวิท ต.ศรีราชา อ.ศรีราชา จ.ชลบุรี 20110,ชลบุรี,,,,13.1791293,100.9312354,,11.00-17.00,,,"HUB บางละมุง	",active,admin,คละสูตรได้ (ครึ่งแพ็ค+ครึ่งแพ็ค)
B2205160,B2205160,Pet Lover Centre สาขา เซ็นทรัลพระราม 3,PET SHOP,,,ณัฐชยา ศิริเธียรไชย,,,,,79/3 เซ็นทรัล พระราม 3 (ชั้น G ห้อง G10) ถ.สาธุประดิษฐ์ แขวงช่องนนทรี เขตยานนาวา จ.กรุงเทพฯ 10120,79/3 เซ็นทรัล พระราม 3 (ชั้น G ห้อง G10) ถ.สาธุประดิษฐ์ แขวงช่องนนทรี เขตยานนาวา จ.กรุงเทพฯ 10120,กรุงเทพฯ,,,,13.6979878,100.5372321,,11.00-17.00,,,,active,admin,คละสูตรได้ (ครึ่งแพ็ค+ครึ่งแพ็ค)
B2205161,B2205161,Pet Lover Centre สาขา เซ็นทรัลมหาชัย,PET SHOP,,,ณัฐชยา ศิริเธียรไชย,,,,,98 เซ็นทรัล มหาชัย ม.4 (ชั้น G ห้อง G02) ถ.พระราม 2 ต.นาดี อ.เมือง จ.สมุทรสาคร,98 เซ็นทรัล มหาชัย ม.4 (ชั้น G ห้อง G02) ถ.พระราม 2 ต.นาดี อ.เมือง จ.สมุทรสาคร,สมุทรสาคร,,,,13.5984793,100.3089904,,11.00-17.00,,,DC บางพลี,active,admin,คละสูตรได้ (ครึ่งแพ็ค+ครึ่งแพ็ค)
B2407018,B2407018,Pet Lover Centre สาขา เซ็นทรัลสีลม,PET SHOP,,,ณัฐชยา ศิริเธียรไชย,,,,,เลขที่ 169-171 ถ.สีลม แขวงสีลม เขตบางรัก จ.กรุงเทพฯ,เลขที่ 169-171 ถ.สีลม แขวงสีลม เขตบางรัก จ.กรุงเทพฯ,กรุงเทพฯ,,,,13.7247198,100.5242284,,11.00-17.00,,,,active,admin,คละสูตรได้ (ครึ่งแพ็ค+ครึ่งแพ็ค)
B2205159,B2205159,Pet Lover Centre สาขา เดอะมอลล์บางแค,PET SHOP,,,ณัฐชยา ศิริเธียรไชย,,,,,275 เดอะมอลล์ บางแค (ชั้น P) ถ.เพชรเกษม แขวงบางแคเหนือ เขตบางแค จ.กรุงเทพฯ 10160,275 เดอะมอลล์ บางแค (ชั้น P) ถ.เพชรเกษม แขวงบางแคเหนือ เขตบางแค จ.กรุงเทพฯ 10160,กรุงเทพฯ,,,,13.713069,100.4080539,,11.00-17.00,,,,active,admin,คละสูตรได้ (ครึ่งแพ็ค+ครึ่งแพ็ค)
B2205164,B2205164,Pet Lover Centre สาขา เมืองทองธานี,PET SHOP,,,ณัฐชยา ศิริเธียรไชย,,,,,58/93 ม.3 ต.คลองเกลือ อ.ปากเกร็ด จ.นนทบุรี 11120,58/93 ม.3 ต.คลองเกลือ อ.ปากเกร็ด จ.นนทบุรี 11120,นนทบุรี,,,,13.9018966,100.5423819,,11.00-17.00,,,DC บางพลี,active,admin,คละสูตรได้ (ครึ่งแพ็ค+ครึ่งแพ็ค)
B2407019,B2407019,Pet Lover Centre สาขา เอสพลานาด,PET SHOP,,,ณัฐชยา ศิริเธียรไชย,,,,,เลขที่ 99 ชั้น B1 ห้องเลขที่ ESP01LS003 ถ.รัชดาภิเษก แขวงดินแดง เขตดินแดง จ.กรุงเทพฯ,เลขที่ 99 ชั้น B1 ห้องเลขที่ ESP01LS003 ถ.รัชดาภิเษก แขวงดินแดง เขตดินแดง จ.กรุงเทพฯ,กรุงเทพฯ,,,,13.757562,100.565023,,11.00-17.00,,,,active,admin,คละสูตรได้ (ครึ่งแพ็ค+ครึ่งแพ็ค)
B2402013,B2402013,Pet Lover Centre สาขา เอ็มสเฟียร์,PET SHOP,,,ณัฐชยา ศิริเธียรไชย,,,,,628 ชั้น B2 ห้องเลขที่ B2s1-3 ถ.สุขุมวิท แขวงคลองตัน เขตคลองเตย กรุงเทพฯ,628 ชั้น B2 ห้องเลขที่ B2s1-3 ถ.สุขุมวิท แขวงคลองตัน เขตคลองเตย กรุงเทพฯ,กรุงเทพฯ,,,,13.7293179,100.5712345,,11.00-17.00,,,,active,admin,คละสูตรได้ (ครึ่งแพ็ค+ครึ่งแพ็ค)
B2205162,B2205162,Pet Lover Centre สาขา โรบินสันลาดกระบัง,PET SHOP,,,ณัฐชยา ศิริเธียรไชย,,,,,71 โรบินสันลาดกระบัง ถ.ลาดกระบัง แขวงลาดกระบัง เขตลาดกระบัง จ.กรุงเทพฯ 10520,71 โรบินสันลาดกระบัง ถ.ลาดกระบัง แขวงลาดกระบัง เขตลาดกระบัง จ.กรุงเทพฯ 10520,กรุงเทพฯ,,,,13.7198548,100.7250869,,11.00-17.00,,,,active,admin,คละสูตรได้ (ครึ่งแพ็ค+ครึ่งแพ็ค)
B2205163,B2205163,Pet Lover Centre สาขา โลตัสหลักสี่,PET SHOP,,,ณัฐชยา ศิริเธียรไชย,,,,,52 โลตัส หลักสี่ ถ.พหลโยธิน แขวงอนุสาวรีย์ เขตบางเขน จ.กรุงเทพฯ 10220,52 โลตัส หลักสี่ ถ.พหลโยธิน แขวงอนุสาวรีย์ เขตบางเขน จ.กรุงเทพฯ 10220,กรุงเทพฯ,,,,13.8795734,100.5999842,,11.00-17.00,,,,active,admin,คละสูตรได้ (ครึ่งแพ็ค+ครึ่งแพ็ค)
B2205113,B2205113,Pet Mall เทคโนลาดกระบัง,PET SHOP,,,ณัฐชยา ศิริเธียรไชย,,,,,เลขที่ 1783 ติดกับปากซอยลาดกระบัง 13/5 แขวงลาดกระบัง เขตลาดกระบัง กรุงเทพฯ 10520,เลขที่ 1783 ติดกับปากซอยลาดกระบัง 13/5 แขวงลาดกระบัง เขตลาดกระบัง กรุงเทพฯ 10520,กรุงเทพฯ,,,,13.7227272,100.7807924,,09.00-17.00,,,,active,admin,
B2205394,B2205394,Pet Me,PET SHOP,,,ปราวีณา บางยิ้ม,,,,,1111/3-5 ม.1 ถ.สุรนารายณ์ ต.บ้านเกาะ อ.เมือง จ.นครราชสีมา,1111/3-5 ม.1 ถ.สุรนารายณ์ ต.บ้านเกาะ อ.เมือง จ.นครราชสีมา,นครราชสีมา,,,,15.0240306,102.1386713,,10.00-16.00,,,HUB โคราช,active,admin,
B2303023,B2303023,Pet Me Mall,PET SHOP,,,ศรัณยา ธรรมเที่ยง,,,,,764 ม.10 ต.ในคลองบางปลากด อ.พระสมุทรเจดีย์ จ.สมุทรปราการ 10290,764 ม.10 ต.ในคลองบางปลากด อ.พระสมุทรเจดีย์ จ.สมุทรปราการ 10290,สมุทรปราการ,,,,13.5851971,100.5181902,,09.00-17.00,,,,active,admin,
B2205384,B2205384,Pet More Korat,PET SHOP,,,ปราวีณา บางยิ้ม,,,,,199/9 ตรอกสำโรงจันทร์ ต.ในเมือง อ.เมือง จ.นครราชสีมา 30000,199/9 ตรอกสำโรงจันทร์ ต.ในเมือง อ.เมือง จ.นครราชสีมา 30000,นครราชสีมา,,,,14.9814637,102.0811408,,10.00-15.00,,,HUB โคราช,active,admin,"ส่วนลดค้าส่ง 2%,"
B2308019,B2308019,Pet More สาขา 2 บ้านเกาะ,PET SHOP,,,ปราวีณา บางยิ้ม,,,,,1177/7 ถ.สุรนารายณ์ ต.ในเมือง อ.เมือง จ.นครราชสีมา 30000,1177/7 ถ.สุรนารายณ์ ต.ในเมือง อ.เมือง จ.นครราชสีมา 30000,นครราชสีมา,,,,14.9957932,102.1287666,,09.00-15.00,,,HUB โคราช,active,admin,ส่วนลดค้าส่ง 2%
B2404003,B2404003,Pet More สาขา 3 หนองไผ่ล้อม,PET SHOP,,,ปราวีณา บางยิ้ม,,,,,"3,5,7 ถ.เดชอุดม ต.ในเมือง อ.เมืองนครราชสีมา จ.นครราชสีมา","3,5,7 ถ.เดชอุดม ต.ในเมือง อ.เมืองนครราชสีมา จ.นครราชสีมา",นครราชสีมา,,,,14.9699647,102.0854438,,09.00-15.00,,,HUB โคราช,active,admin,ส่วนลดค้าส่ง 2%
B2508005,B2508005,Pet More สาขา 4 ปากช่อง,PET SHOP,,,ปราวีณา บางยิ้ม,,,,,506/2 ถ.มิตรภาพ ต.ปากช่อง อ.ปากช่อง จ.นครราชสีมา 30130,506/2 ถ.มิตรภาพ ต.ปากช่อง อ.ปากช่อง จ.นครราชสีมา 30130,นครราชสีมา,,,,,,,,,,,active,admin,ส่วนลดค้าส่ง 2%
B2205377,B2205377,Pet Pal Hua Hin,PET SHOP,,,บุณยานุช นรมาตย์,,,,,52 ม.1 หมู่บ้านหนองขอน ต.หินเหล็กไฟ อ.หัวหิน จ.ประจวบคีรีขันธ์ 77110,52 ม.1 หมู่บ้านหนองขอน ต.หินเหล็กไฟ อ.หัวหิน จ.ประจวบคีรีขันธ์ 77110,ประจวบคีรีขันธ์,,,,12.5906154,99.8766825,,09.00-16.00,,,HUB ปราณบุรี,active,admin,
B2409003,B2409003,Pet Parent สาขา ทุ่งเสา,PET SHOP,,,ชาตรี ไข่แก้ว,,,,,78 ถ.ทุ่งเสา 2 ต.หาดใหญ่ อ.หาดใหญ่ จ.สงขลา 90110,78 ถ.ทุ่งเสา 2 ต.หาดใหญ่ อ.หาดใหญ่ จ.สงขลา 90110,สงขลา,,,,6.9956602,100.4797594,,10.00-17.00,,,HUB หาดใหญ่,active,admin,
B2312011,B2312011,Pet Parent สาขา บ้านพรุ คลองหวะ,PET SHOP,,,ชาตรี ไข่แก้ว,,,,,"33 ถ.กาญจนวนิช ต.บ้านพรุ อ,หาดใหญ่ จ.สงขลา 90250","33 ถ.กาญจนวนิช ต.บ้านพรุ อ,หาดใหญ่ จ.สงขลา 90250",สงขลา,,,,6.9704529,100.4779558,,10.00-17.00,,,HUB หาดใหญ่,active,admin,
B2211044,B2211044,Pet Parent สาขา สะเดา,PET SHOP,,,ชาตรี ไข่แก้ว,,,,,15/2 ถ.ภูธรอุทิศ ต.สะเดา อ.สะเดา จ.สงขลา,15/2 ถ.ภูธรอุทิศ ต.สะเดา อ.สะเดา จ.สงขลา,สงขลา,,,,6.6378039,100.4221043,,10.00-17.00,,,HUB หาดใหญ่,active,admin,
B2212012,B2212012,Pet Paws Pals,PET SHOP,,,ณัฐชยา ศิริเธียรไชย,,,,,58/88 ม.1 ซ.หลังวัดหนามแดง ถ.หลังวัดหนามแดง ต.บางแก้ว อ.บางพลี จ.สมุทรปราการ 10540,58/88 ม.1 ซ.หลังวัดหนามแดง ถ.หลังวัดหนามแดง ต.บางแก้ว อ.บางพลี จ.สมุทรปราการ 10540,สมุทรปราการ,,,,13.6134058,100.6865611,,10.00-15.00,,,,active,admin,
B2205157,B2205157,Pet Safari สาขา ICONSIAM,PET SHOP,,,ณัฐชยา ศิริเธียรไชย,,,,,299 ชั้น B1 ห้อง B106 ถ.เจริญนคร แขวงคลองต้นไทร เขตคลองสาน จ.กรุงเทพฯ 10600,299 ชั้น B1 ห้อง B106 ถ.เจริญนคร แขวงคลองต้นไทร เขตคลองสาน จ.กรุงเทพฯ 10600,กรุงเทพฯ,,,,13.7233495,100.5089953,,11.00-17.00,,,,active,admin,คละสูตรได้ (ครึ่งแพ็ค+ครึ่งแพ็ค)
B2205156,B2205156,Pet Safari สาขา พาราไดซ์ พาร์ค,PET SHOP,,,ณัฐชยา ศิริเธียรไชย,,,,,61 (ชั้น G) ถ.ศรีนครินทร์ แขวงหนองบอน เขตประเวศ จ.กรุงเทพฯ 10250,61 (ชั้น G) ถ.ศรีนครินทร์ แขวงหนองบอน เขตประเวศ จ.กรุงเทพฯ 10250,กรุงเทพฯ,,,,13.687715,100.647204,,11.00-17.00,,,,active,admin,คละสูตรได้ (ครึ่งแพ็ค+ครึ่งแพ็ค)
B2205158,B2205158,Pet Safari สาขา เซ็นทรัลอีสวิลล์,PET SHOP,,,ณัฐชยา ศิริเธียรไชย,,,,,"69-69/2 เซ็นทรัล เฟสติวัล อีสต์วิลล์ (ห้อง PP-101/102, 107) ถ.ประดิษฐ์มนูธรรม แขวงลาดพร้าว เขตลาดพร้าว จ.กรุงเทพฯ 10230","69-69/2 เซ็นทรัล เฟสติวัล อีสต์วิลล์ (ห้อง PP-101/102, 107) ถ.ประดิษฐ์มนูธรรม แขวงลาดพร้าว เขตลาดพร้าว จ.กรุงเทพฯ 10230",กรุงเทพฯ,,,,13.8046642,100.6148446,,11.00-17.00,,,,active,admin,คละสูตรได้ (ครึ่งแพ็ค+ครึ่งแพ็ค)
B2205198,B2205198,Pet Season,PET SHOP,,,เมธาวี แย้มเมืองไชย,,,,,"ตลาด 18 คอร์ด ราชพฤกษ์, ถ.ราชพฤกษ์ ต.บางพลับ อ.ปากเกร็ด จ.นนทบุรี 11120","ตลาด 18 คอร์ด ราชพฤกษ์, ถ.ราชพฤกษ์ ต.บางพลับ อ.ปากเกร็ด จ.นนทบุรี 11120",นนทบุรี,,,,13.9184502,100.4536437,,,,,DC บางพลี,active,admin,
B2205444,B2205444,Pet Smile,PET SHOP,,,จุฑาภรณ์ กรรธิภากร,,,,,456/1 ม.3 ต.หัวรอ อ.เมือง จ.พิษณุโลก 65000,456/1 ม.3 ต.หัวรอ อ.เมือง จ.พิษณุโลก 65000,พิษณุโลก,,,,16.835315,100.2694948,,09.00-18.00,,,"HUB พิษณุโลก	",active,admin,
B2205038,B2205038,Pet Space,PET SHOP,,,ศรัณยา ธรรมเที่ยง,,,,,548/44-45 ถ.บางแค แขวงบางแค เขตบางแค จ.กรุงเทพฯ,548/44-45 ถ.บางแค แขวงบางแค เขตบางแค จ.กรุงเทพฯ,กรุงเทพฯ,,,,13.7013204,100.4208065,,11.00-17.00,,,,active,admin,
B2407038,B2407038,Pet Station สาขา ดรีมแลนด์มาร์เก็ต,PET SHOP,,,บุณยานุช นรมาตย์,,,,,100/51 ม.14 ต.วัดไทรย์ อ.เมืองนครสวรรค์ จ.นครสวรรค์ 600000,100/51 ม.14 ต.วัดไทรย์ อ.เมืองนครสวรรค์ จ.นครสวรรค์ 600000,นครสวรรค์,,,,15.7117783,100.0885246,,10.00-17.00,,,HUB นครสวรรค์,active,admin,
B2210079,B2210079,Pet Station สาขา นครสวรรค์,PET SHOP,,,บุณยานุช นรมาตย์,,,,,ช.65/2 ถ.สวรรค์วิถี ต.ปากน้ำโพ อ.เมือง จ.นครสวรรค์ 600,ช.65/2 ถ.สวรรค์วิถี ต.ปากน้ำโพ อ.เมือง จ.นครสวรรค์ 600,นครสวรรค์,,,,15.6979851,100.1164665,,09.30-17.00,,,HUB นครสวรรค์,active,admin,
B2210078,B2210078,Pet Station สาขา รังสิต,PET SHOP,,,บุณยานุช นรมาตย์,,,,,55/5 ม. 2 ชั้น 1 อาคารธาราอเวนิว รังสิต คลอง 3 ต.บึงยี่โถ อ.ธัญบุรี จ.ปทุมธานี 12130,55/5 ม. 2 ชั้น 1 อาคารธาราอเวนิว รังสิต คลอง 3 ต.บึงยี่โถ อ.ธัญบุรี จ.ปทุมธานี 12130,ปทุมธานี,,,,13.9959533,100.6655458,,09.30-17.00,,,DC บางพลี,active,admin,
B2205319,B2205319,Pet Station สาขา ลพบุรี,PET SHOP,,,บุณยานุช นรมาตย์,,,,,214 ม. 6 ต.ทะเลชุบศร อ.เมือง จ.ลพบุรี,214 ม. 6 ต.ทะเลชุบศร อ.เมือง จ.ลพบุรี,ลพบุรี,,,,14.8252499,100.6456339,,10.00-17.00,,,HUB อยุธยา,active,admin,
B2306008,B2306008,Pet Station สาขา สนามบินน้ำ,PET SHOP,,,บุณยานุช นรมาตย์,,,,,339/2 ถ.นนทบุรี ต.ท่าทราย อ.เมืองนนทบุรี จ.นนทบุรี 11000,339/2 ถ.นนทบุรี ต.ท่าทราย อ.เมืองนนทบุรี จ.นนทบุรี 11000,นนทบุรี,,,,13.8803244,100.503694,,10.00-17.00,,,DC บางพลี,active,admin,
B2303010,B2303010,Pet Station สาขา สระบุรี,PET SHOP,,,บุณยานุช นรมาตย์,,,,,690/93 ถ.พิชัยรณรงค์สงคราม ต.ปากเพรียว อ.เมืองสระบุรี จ.สระบุรี,690/93 ถ.พิชัยรณรงค์สงคราม ต.ปากเพรียว อ.เมืองสระบุรี จ.สระบุรี,สระบุรี,,,,14.5439712,100.9065609,,10.00-17.00,,,HUB อยุธยา,active,admin,
B2406001,B2406001,Pet Story,PET SHOP,,,ณัฐชยา ศิริเธียรไชย,,,,,เลขที่ 275 ถ.เจริญกรุง แขวงยานนาวา เขตสาทร กรุงเทพฯ 10120,เลขที่ 275 ถ.เจริญกรุง แขวงยานนาวา เขตสาทร กรุงเทพฯ 10120,กรุงเทพฯ,,,,13.7110956,100.5119342,,10.00-18.00,,,,active,admin,
B2303031,B2303031,Pet Town,PET SHOP,,,ณิชากร อ่อนเทศ,,,,,118/2 ม.1 แขวงทุ่งสองห้อง เขตหลักสี่ จ.กรุงเทพฯ,118/2 ม.1 แขวงทุ่งสองห้อง เขตหลักสี่ จ.กรุงเทพฯ,กรุงเทพฯ,,,,13.8610909,100.5571133,,10.00-17.00,,,,active,admin,
B2212005,B2212005,Pet Us สาขา ICS,PET SHOP,,,พชร ทองเลี่ยมรัตน์,,,,,168 ถ.เจริญนคร แขวงคลองต้นไทร เขตคลองสาน จ.กรุงเทพฯ 10600,168 ถ.เจริญนคร แขวงคลองต้นไทร เขตคลองสาน จ.กรุงเทพฯ 10600,กรุงเทพฯ,,,,13.7263757,100.5085448,,,,,,active,admin,"คละสูตรได้ (ครึ่งแพ็ค+ครึ่งแพ็ค),เปิดไม่ลงแพ็คได้"
B2309028,B2309028,Pet Us สาขา ถลาง,PET SHOP,,,พชร ทองเลี่ยมรัตน์,,,,,303 ม.1 ต.เทพกระษัตรี อ.ถลาง จ.ภูเก็ต 83110,303 ม.1 ต.เทพกระษัตรี อ.ถลาง จ.ภูเก็ต 83110,ภูเก็ต,,,,8.0855065,98.3426597,,,,,HUB พุนพิน,active,admin,"คละสูตรได้ (ครึ่งแพ็ค+ครึ่งแพ็ค),เปิดไม่ลงแพ็คได้"
B2205279,B2205279,Pet Us สาขา บางนา,PET SHOP,,,พชร ทองเลี่ยมรัตน์,,,,,14/9 ม.13 โลตัสบางนา ถ.บางนา-ตราด กม.7 ต.บางแก้ว อ.บางพลี จ.สมุทรปราการ 10540,14/9 ม.13 โลตัสบางนา ถ.บางนา-ตราด กม.7 ต.บางแก้ว อ.บางพลี จ.สมุทรปราการ 10540,สมุทรปราการ,,,,13.6420208,100.6658229,,,,,,active,admin,"คละสูตรได้ (ครึ่งแพ็ค+ครึ่งแพ็ค),เปิดไม่ลงแพ็คได้"
B2210011,B2210011,Pet Us สาขา บางใหญ่,PET SHOP,,,พชร ทองเลี่ยมรัตน์,,,,,90 ม.5 ต.บางคูเวียง อ.บางกรวย จ.นนทบุรี,90 ม.5 ต.บางคูเวียง อ.บางกรวย จ.นนทบุรี,นนทบุรี,,,,13.828753,100.3986079,,,,,DC บางพลี,active,admin,"คละสูตรได้ (ครึ่งแพ็ค+ครึ่งแพ็ค),เปิดไม่ลงแพ็คได้"
B2205133,B2205133,Pet Us สาขา พัฒนาการ,PET SHOP,,,พชร ทองเลี่ยมรัตน์,,,,,2279 ถ.พัฒนาการ แขวงพัฒนาการ เขตสวนหลวง จ.กรุงเทพฯ 10250,2279 ถ.พัฒนาการ แขวงพัฒนาการ เขตสวนหลวง จ.กรุงเทพฯ 10250,กรุงเทพฯ,,,,13.7377859,100.6360203,,,,,,active,admin,"คละสูตรได้ (ครึ่งแพ็ค+ครึ่งแพ็ค),เปิดไม่ลงแพ็คได้"
B2210010,B2210010,Pet Us สาขา รัตนาธิเบศร์,PET SHOP,,,พชร ทองเลี่ยมรัตน์,,,,,245 ถ.ติวานนท์ ต.บางกระสอ อ.เมืองนนทบุรี จ.นนทบุรี,245 ถ.ติวานนท์ ต.บางกระสอ อ.เมืองนนทบุรี จ.นนทบุรี,นนทบุรี,,,,13.8642054,100.5198797,,,,,DC บางพลี,active,admin,"คละสูตรได้ (ครึ่งแพ็ค+ครึ่งแพ็ค),เปิดไม่ลงแพ็คได้"
B2210009,B2210009,Pet Us สาขา ลาดกระบัง,PET SHOP,,,พชร ทองเลี่ยมรัตน์,,,,,362 ถ.หลวงแพ่ง แขวงทับยาว เขตลาดกระบัง จ.กรุงเทพฯ,362 ถ.หลวงแพ่ง แขวงทับยาว เขตลาดกระบัง จ.กรุงเทพฯ,กรุงเทพฯ,,,,13.709342,100.824367,,,,,,active,admin,"คละสูตรได้ (ครึ่งแพ็ค+ครึ่งแพ็ค),เปิดไม่ลงแพ็คได้"
B2310008,B2310008,Pet Us สาขา สุขุมวิท 50,PET SHOP,,,พชร ทองเลี่ยมรัตน์,,,,,1710 ถ.สุขุมวิท แขวงพระโขนง เขตคลองเตย กรุงเทพฯ 10260,1710 ถ.สุขุมวิท แขวงพระโขนง เขตคลองเตย กรุงเทพฯ 10260,กรุงเทพฯ,,,,13.7050247,100.601071,,,,,,active,admin,"คละสูตรได้ (ครึ่งแพ็ค+ครึ่งแพ็ค),เปิดไม่ลงแพ็คได้"
B2305032,B2305032,Pet Us สาขา อุบลราชธานี,PET SHOP,,,พชร ทองเลี่ยมรัตน์,,,,,492 ต.ในเมือง อ.เมืองอุบลราชธานี จ.อุบลราชธานี 34000,492 ต.ในเมือง อ.เมืองอุบลราชธานี จ.อุบลราชธานี 34000,อุบลราชธานี,,,,15.2285912,104.8512993,,,,,HUB อุบลราชธานี,active,admin,"คละสูตรได้ (ครึ่งแพ็ค+ครึ่งแพ็ค),เปิดไม่ลงแพ็คได้"
B2302017,B2302017,Pet Us สาขาโลตัสนครอินทร์,PET SHOP,,,พชร ทองเลี่ยมรัตน์,,,,,444 ม.4 ต.บางสีทอง อ.บางกรวย จ.นนทบุรี 11130,444 ม.4 ต.บางสีทอง อ.บางกรวย จ.นนทบุรี 11130,นนทบุรี,,,,13.8290482,100.4739203,,,,,DC บางพลี,active,admin,"คละสูตรได้ (ครึ่งแพ็ค+ครึ่งแพ็ค),เปิดไม่ลงแพ็คได้"
B2303003,B2303003,Pet Us สาขาโลตัสสุขาภิบาล 1 (5012),PET SHOP,,,พชร ทองเลี่ยมรัตน์,,,,,629 ถ.นวมินทร์ แขวงนวลจันทร์ เขตบึ่งกุ่ม จ.กรุงเทพฯ 10230,629 ถ.นวมินทร์ แขวงนวลจันทร์ เขตบึ่งกุ่ม จ.กรุงเทพฯ 10230,กรุงเทพฯ,,,,13.8257145,100.6596051,,,,,,active,admin,"คละสูตรได้ (ครึ่งแพ็ค+ครึ่งแพ็ค),เปิดไม่ลงแพ็คได้"
B2211039,B2211039,Pet Wise,PET SHOP,,,บุณยาพร นรมาตย์,,,,,108 ถ.ผังเมืองบัญชา ต.ตลาด อ.เมืองมหาสารคาม จ.มหาสารคาม 44000,108 ถ.ผังเมืองบัญชา ต.ตลาด อ.เมืองมหาสารคาม จ.มหาสารคาม 44000,มหาสารคาม,,,,16.1774275,103.3005935,,10.00-17.00,,,HUB ขอนแก่น,active,admin,
B2406028,B2406028,Pet and Play เพ็ท แอน เพลย์,PET SHOP,,,บุณยานุช นรมาตย์,,,,,223 ม.3 ต.ท่าม่วง อ.ท่าม่วง จ.กาญจนบุรี 71110,223 ม.3 ต.ท่าม่วง อ.ท่าม่วง จ.กาญจนบุรี 71110,กาญจนบุรี,,,,13.9736776,99.6344384,,10.00-17.00,,,บางพลี,active,admin,
B2307013,B2307013,Pet monster (เพด มอนสเตอร์),PET SHOP,,,ณัฐชยา ศิริเธียรไชย,,,,,บางแก้ว ต.บางแก้ว อ.บางพลี จ.สมุทรปราการ 10540,บางแก้ว ต.บางแก้ว อ.บางพลี จ.สมุทรปราการ 10540,สมุทรปราการ,,,,13.6536107,100.6745287,,10.00-16.00,,,,active,admin,
B2402011,B2402011,Pet of love,PET SHOP,,,ณัฐชยา ศิริเธียรไชย,,,,,"828,829 ม.3 ซ.วัดด่านสำโรง ต.สำโรงเหนือ อ.เมืองสมุทรปราการ จ.สมุทรปราการ 10270","828,829 ม.3 ซ.วัดด่านสำโรง ต.สำโรงเหนือ อ.เมืองสมุทรปราการ จ.สมุทรปราการ 10270",สมุทรปราการ,,,,13.6359891,100.6193467,,10.00-16.00,,,,active,admin,
B2303005,B2303005,Pet room,PET SHOP,,,บุณยานุช นรมาตย์,,,,,358/5 ม.2 ต.สามเรือน อ.บางปะอิน จ.อยุธยา 13160,358/5 ม.2 ต.สามเรือน อ.บางปะอิน จ.อยุธยา 13160,อยุธยา,,,,14.3129036,100.6332054,,10.00-17.00,,,HUB อยุธยา,active,admin,
B2303004,B2303004,Pet story,PET SHOP,,,ณัฐชยา ศิริเธียรไชย,,,,,32/1 ม.7 ถ.บางพลี-กิ่งแก้ว ต.บางพลีใหญ่ อ.บางพลี จ.สมุทรปราการ,32/1 ม.7 ถ.บางพลี-กิ่งแก้ว ต.บางพลีใหญ่ อ.บางพลี จ.สมุทรปราการ,สมุทรปราการ,,,,13.6046692,100.6999218,,10.00-16.00,,,,active,admin,
B2311020,B2311020,Pet us สาขา พระราม 4,PET SHOP,,,พชร ทองเลี่ยมรัตน์,,,,,เลขที่ 3300 ถ.พระราม 4 แขวงคลองตัน เขต คลองเตย กรุงเทพฯ 10110,เลขที่ 3300 ถ.พระราม 4 แขวงคลองตัน เขต คลองเตย กรุงเทพฯ 10110,กรุงเทพฯ,,,,13.7169434,100.5686431,,,,,,active,admin,"คละสูตรได้ (ครึ่งแพ็ค+ครึ่งแพ็ค),เปิดไม่ลงแพ็คได้"
B2311010,B2311010,Pet us สาขา ศรีนครินทร์,PET SHOP,,,พชร ทองเลี่ยมรัตน์,,,,,เลขที่ 9 ม.6 ถ.ศรีนครินทร์ ต.บางเมืองใหม่ อ.เมือง สมุทรปราการ จ.สมุทรปราการ 10270,เลขที่ 9 ม.6 ถ.ศรีนครินทร์ ต.บางเมืองใหม่ อ.เมือง สมุทรปราการ จ.สมุทรปราการ 10270,สมุทรปราการ,,,,13.6255046,100.6254802,,,,,,active,admin,"คละสูตรได้ (ครึ่งแพ็ค+ครึ่งแพ็ค),เปิดไม่ลงแพ็คได้"
B2401001,B2401001,PetPaw (คลังสินค้า),PET SHOP,,,พชร ทองเลี่ยมรัตน์,,,,,คลัง SCGJWD LOGISTICS BNA site 111/6-7 ม.7 ต.บางปลา อ.บางพลี จ.สมุทรปราการ 10540,คลัง SCGJWD LOGISTICS BNA site 111/6-7 ม.7 ต.บางปลา อ.บางพลี จ.สมุทรปราการ 10540,สมุทรปราการ,,,,13.9159625,100.4015703,,09.00-14.00,,,,active,admin,คละสูตรได้ (ครึ่งแพ็ค+ครึ่งแพ็ค)
B2308027,B2308027,PetPaw สาขา Earth Eakamai,PET SHOP,,,พชร ทองเลี่ยมรัตน์,,,,,อาคาร 7/1 เลขที่ห้อง 103 ซ.สุขุมวิท 63 (Earth Ekamai) แขวงคลองตันเหนือ เขตวัฒนา กรุงเทพฯ 10110,อาคาร 7/1 เลขที่ห้อง 103 ซ.สุขุมวิท 63 (Earth Ekamai) แขวงคลองตันเหนือ เขตวัฒนา กรุงเทพฯ 10110,กรุงเทพฯ,,,,13.7306097,100.5862988,,12.00-16.00,,,,active,admin,คละสูตรได้ (ครึ่งแพ็ค+ครึ่งแพ็ค)
B2309024,B2309024,PetPaw สาขา Little Walk กรุงเทพกรีฑา,PET SHOP,,,พชร ทองเลี่ยมรัตน์,,,,,17/6 ถ.ศรีนครินทร์-ร่มเกล้า แขวงทับช้าง เขตสะพานสูง กรุงเทพฯ 10250,17/6 ถ.ศรีนครินทร์-ร่มเกล้า แขวงทับช้าง เขตสะพานสูง กรุงเทพฯ 10250,กรุงเทพฯ,,,,13.7519816,100.6859295,,12.00-16.00,,,,active,admin,คละสูตรได้ (ครึ่งแพ็ค+ครึ่งแพ็ค)
B2311011,B2311011,PetPaw สาขา PTT WEST VILLAGE บางใหญ่,PET SHOP,,,พชร ทองเลี่ยมรัตน์,,,,,88/2 ม.1 ต.บางแม่นาง อ.บางใหญ่ จ.นนทบุรี 11140,88/2 ม.1 ต.บางแม่นาง อ.บางใหญ่ จ.นนทบุรี 11140,นนทบุรี,,,,13.8688545,100.4072901,,12.00-16.00,,,DC บางพลี,active,admin,คละสูตรได้ (ครึ่งแพ็ค+ครึ่งแพ็ค)
B2310015,B2310015,PetPaw สาขา W Mall เชียงใหม่,PET SHOP,,,พชร ทองเลี่ยมรัตน์,,,,,ห้องเลขที่ 15-16 อาคารดับเบิลยูมอลล์ เลขที่ 10/7 ม.4 ต.หนองหอย อ.เมืองเชียงใหม่ จ.เชียงใหม่ 50000,ห้องเลขที่ 15-16 อาคารดับเบิลยูมอลล์ เลขที่ 10/7 ม.4 ต.หนองหอย อ.เมืองเชียงใหม่ จ.เชียงใหม่ 50000,เชียงใหม่,,,,18.7623615,99.0087372,,12.00-16.00,,,HUB เชียงใหม่,active,admin,คละสูตรได้ (ครึ่งแพ็ค+ครึ่งแพ็ค)
B2312003,B2312003,PetPaw สาขา ตลาดมารวย,PET SHOP,,,พชร ทองเลี่ยมรัตน์,,,,,อาคารพาณิชย์ 1 ชั้น 9/4 ม.1 ต.บึงคำพร้อย อ.ลำลูกกา จ.ปทุมธานี 12150,อาคารพาณิชย์ 1 ชั้น 9/4 ม.1 ต.บึงคำพร้อย อ.ลำลูกกา จ.ปทุมธานี 12150,ปทุมธานี,,,,13.9287311,100.7221757,,12.00-16.00,,,DC บางพลี,active,admin,คละสูตรได้ (ครึ่งแพ็ค+ครึ่งแพ็ค)
B2304010,B2304010,PetPaw สาขา ตลาดหัวถนน,PET SHOP,,,พชร ทองเลี่ยมรัตน์,,,,,หน้า ซ.ขจรวิทย์ ต.บางพลีใหญ่ อ.บางพลี จ.สมุทรปราการ,หน้า ซ.ขจรวิทย์ ต.บางพลีใหญ่ อ.บางพลี จ.สมุทรปราการ,สมุทรปราการ,,,,13.5965259,100.6697257,,12.00-16.00,,,,active,admin,คละสูตรได้ (ครึ่งแพ็ค+ครึ่งแพ็ค)
B2303035,B2303035,PetPaw สาขา พระราม 4,PET SHOP,,,พชร ทองเลี่ยมรัตน์,,,,,3767/2 PTT Station กล้วยน้ำไท (พระราม 4) ถ.พระรามที่ 4 แขวงพระโขนง เขตคลองเตย กรุงเทพฯ 10110,3767/2 PTT Station กล้วยน้ำไท (พระราม 4) ถ.พระรามที่ 4 แขวงพระโขนง เขตคลองเตย กรุงเทพฯ 10110,กรุงเทพฯ,,,,13.7124806,100.5893143,,12.00-16.00,,,,active,admin,คละสูตรได้ (ครึ่งแพ็ค+ครึ่งแพ็ค)
B2307008,B2307008,PetPaw สาขา พิษณุโลก,PET SHOP,,,พชร ทองเลี่ยมรัตน์,,,,,68/2 ถ.พระองค์ดำ ต.ในเมือง อ.เมืองพิษณุโลก จ.พิษณุโลก 65000,68/2 ถ.พระองค์ดำ ต.ในเมือง อ.เมืองพิษณุโลก จ.พิษณุโลก 65000,พิษณุโลก,,,,16.8183305,100.2715688,,12.00-16.00,,,"HUB พิษณุโลก	",active,admin,คละสูตรได้ (ครึ่งแพ็ค+ครึ่งแพ็ค)
B2312002,B2312002,PetPaw สาขา หาดใหญ่,PET SHOP,,,พชร ทองเลี่ยมรัตน์,,,,,อาคารเลขที่ 41/221 ถ.นิพัทธ์สงเคราะห์ 1 ต.หาดใหญ่ อ.หาดใหญ่ จ.สงขลา 9011,อาคารเลขที่ 41/221 ถ.นิพัทธ์สงเคราะห์ 1 ต.หาดใหญ่ อ.หาดใหญ่ จ.สงขลา 9011,สงขลา,,,,7.0190084,100.4706686,,12.00-16.00,,,HUB หาดใหญ่,active,admin,คละสูตรได้ (ครึ่งแพ็ค+ครึ่งแพ็ค)
B2307007,B2307007,PetPaw สาขา อุตรดิตถ์,PET SHOP,,,พชร ทองเลี่ยมรัตน์,,,,,218 ถ.เจษฎาบดินทร์เหนือ ต.ทำอิฐ อ.เมือง จ.อุตรดิตถ์ 53000,218 ถ.เจษฎาบดินทร์เหนือ ต.ทำอิฐ อ.เมือง จ.อุตรดิตถ์ 53000,อุตรดิตถ์,,,,17.6331953,100.0893655,,12.00-16.00,,,"HUB พิษณุโลก	",active,admin,คละสูตรได้ (ครึ่งแพ็ค+ครึ่งแพ็ค)
B2304011,B2304011,PetPaw สาขา เลียบด่วน รามอินทรา,PET SHOP,,,พชร ทองเลี่ยมรัตน์,,,,,340 ถ.ประดิษฐ์มนูธรรม แขวงท่าแร้ง เขตบางเขน กรุงเทพฯ,340 ถ.ประดิษฐ์มนูธรรม แขวงท่าแร้ง เขตบางเขน กรุงเทพฯ,กรุงเทพฯ,,,,13.8450112,100.6363471,,12.00-16.00,,,,active,admin,คละสูตรได้ (ครึ่งแพ็ค+ครึ่งแพ็ค)
B2508015,B2508015,PetWorld,PET SHOP,,,ปราวีณา บางยิ้ม,,,,,398 ม.10 ต.บ้านโพธิ์ อ.เมืองนครราชสีมา จ.นครราชสีมา 30310,398 ม.10 ต.บ้านโพธิ์ อ.เมืองนครราชสีมา จ.นครราชสีมา 30310,นครราชสีมา,,,,,,,,,,,active,admin,
B2205034,B2205034,Petory,PET SHOP,,,ศรัณยา ธรรมเที่ยง,,,,,979 ถ.บางแวก แขวงบางไผ่ เขตบางแค จ.กรุงเทพฯ,979 ถ.บางแวก แขวงบางไผ่ เขตบางแค จ.กรุงเทพฯ,กรุงเทพฯ,,,,13.7470344,100.3583809,,09.00-17.00,,,,active,admin,คละสูตรได้ (ครึ่งแพ็ค+ครึ่งแพ็ค)
B2211063,B2211063,Petpretty,PET SHOP,,,ณิชากร อ่อนเทศ,,,,,211/1 ถ.เทพรักษ์ แขวงท่าแร้ง เขตบางเขน จ.กรุงเทพฯ 10230,211/1 ถ.เทพรักษ์ แขวงท่าแร้ง เขตบางเขน จ.กรุงเทพฯ 10230,กรุงเทพฯ,,,,13.880786,100.6273033,,10.00-17.00,,,,active,admin,
B2211065,B2211065,Pets Life,PET SHOP,,,จุฑาภรณ์ กรรธิภากร,,,,,1319/1 ถ.บรมไตรโลกนา ต.ในเมือง อ.เมืองพิษณุโลก จ.พิษณุโลก 65000,1319/1 ถ.บรมไตรโลกนา ต.ในเมือง อ.เมืองพิษณุโลก จ.พิษณุโลก 65000,พิษณุโลก,,,,16.8162955,100.2873186,,09.00-18.00,,,"HUB พิษณุโลก	",active,admin,
B2306026,B2306026,Pets Palace,PET SHOP,,,ณิชากร อ่อนเทศ,,,,,"41,43 ถ.ประชาอุทิศ แขวงดอนเมือง เขตดอนเมือง กรุงเทพฯ","41,43 ถ.ประชาอุทิศ แขวงดอนเมือง เขตดอนเมือง กรุงเทพฯ",กรุงเทพฯ,,,,13.9260523,100.5857286,,10.00-17.00,,,,active,admin,
B2205064,B2205064,Pets To You,PET SHOP,,,เมธาวี แย้มเมืองไชย,,,,,166/1-2 ถ.จรัญสนิทวงศ์ แขวงบ้านช่างหล่อ เขตบางกอกน้อย จ.กรุงเทพฯ,166/1-2 ถ.จรัญสนิทวงศ์ แขวงบ้านช่างหล่อ เขตบางกอกน้อย จ.กรุงเทพฯ,กรุงเทพฯ,,,,13.7500777,100.4700036,,10.00-19.00,,,,active,admin,
B2412017,B2412017,Pets To You สาขา จรัญ 28,PET SHOP,,,เมธาวี แย้มเมืองไชย,,,,,170/27-29 ถ.จรัญสนิทวงศ์ บ้านช่างหล่อ บางกอกน้อย จ.กรุงเทพฯ 10700,170/27-29 ถ.จรัญสนิทวงศ์ บ้านช่างหล่อ บางกอกน้อย จ.กรุงเทพฯ 10700,กรุงเทพฯ,,,,13.7508055,100.4673921,,,,,,active,admin,
B2405022,B2405022,Pets To You สาขา บางพลัด,PET SHOP,,,เมธาวี แย้มเมืองไชย,,,,,"383,385 ถ.จรัญสนิทวงศ์ แขวงบางอ้อ เขตบางพลัด กรุงเทพฯ 10700","383,385 ถ.จรัญสนิทวงศ์ แขวงบางอ้อ เขตบางพลัด กรุงเทพฯ 10700",กรุงเทพฯ,,,,13.7991436,100.5098551,,10.00-17.00,,,,active,admin,
B2411015,B2411015,Pets’Station (เพ็ท สเตชั่น ภูเก็ต),PET SHOP,,,สุวภัทร เพ็งกลางเดือน,,,,,เลขที่ 55/711 ม.2 ถ.เจ้าฟ้าตะวันออก ต.วิชิต อ.เมืองภูเก็ต จ.ภูเก็ต 83000,เลขที่ 55/711 ม.2 ถ.เจ้าฟ้าตะวันออก ต.วิชิต อ.เมืองภูเก็ต จ.ภูเก็ต 83000,ภูเก็ต,,,,,,,,,,,active,admin,
B2410040,B2410040,Pett Shop By บุญเสริมอาหารสัตว์,PET SHOP,,,จุฑาภรณ์ กรรธิภากร,,,,,44/4 ถ.ตั้งใจพัฒนา ต.ในเมือง อ.เมืองเพชรบูรณ์ จ.เพชรบูรณ์ 67000,44/4 ถ.ตั้งใจพัฒนา ต.ในเมือง อ.เมืองเพชรบูรณ์ จ.เพชรบูรณ์ 67000,เพชรบูรณ์,,,,,,,,,,"HUB พิษณุโลก	",active,admin,
B2210066,B2210066,Pettachios,PET SHOP,,,ศรัณยา ธรรมเที่ยง,,,,,253 ซ.พระรามที่ 2 ซอย 37 แขวงบางมด เขตจอมทอง จ.กรุงเทพฯ,253 ซ.พระรามที่ 2 ซอย 37 แขวงบางมด เขตจอมทอง จ.กรุงเทพฯ,กรุงเทพฯ,,,,13.6744354,100.4617025,,10.00-17.00,,,,active,admin,
B2211037,B2211037,Pettern Petshop,PET SHOP,,,ธันย์ชนก พรอำนวยทรัพย์,,,,,640 ถ.ลาซาน แขวงบางนา เขตบางนา จ.กรุงเทพ 10260,640 ถ.ลาซาน แขวงบางนา เขตบางนา จ.กรุงเทพ 10260,กรุงเทพฯ,,,,13.6615183,100.6213468,,10.00-16.00,,,,active,admin,ต้องมีเด็กติดรถ
B2211043,B2211043,Petto ville,PET SHOP,,,ธันย์ชนก พรอำนวยทรัพย์,,,,,120/5 ซ.ลาดพร้าว 91 แขวงคลองเจ้าคุณสิงห์ เขตวังทองหลาง จ.กรุงเทพฯ 10310,120/5 ซ.ลาดพร้าว 91 แขวงคลองเจ้าคุณสิงห์ เขตวังทองหลาง จ.กรุงเทพฯ 10310,กรุงเทพฯ,,,,13.7865001,100.6254729,,10.00-17.00,,,,active,admin,ต้องมีเด็กติดรถ
B2505014,B2505014,Petwogether (เพ็ททูเก็ตเตอร์),PET SHOP,,,ศรัณยา ธรรมเที่ยง,,,,,105/10 ซ.รามคำแหง 118 แยก 33-1 แขวงสะพานสูง เขตสะพานสูง จ.กรุงเทพฯ,105/10 ซ.รามคำแหง 118 แยก 33-1 แขวงสะพานสูง เขตสะพานสูง จ.กรุงเทพฯ,กรุงเทพฯ,,,,13.7703963,100.686657,,,,,,active,admin,
B2205642,B2205642,Petza สาขา ตลาดเทิดไท (หลวงแพ่ง),PET SHOP,,,ณัฐชยา ศิริเธียรไชย,,,,,394 ถ.หลวงแพ่ง แขวงขุมทอง เขตลาดกระบัง กรุงเทพฯ 10520,394 ถ.หลวงแพ่ง แขวงขุมทอง เขตลาดกระบัง กรุงเทพฯ 10520,กรุงเทพฯ,,,,13.6969955,100.8527765,,10.00-17.00,,,,active,admin,
B2205125,B2205125,Pet′s Kingdom,PET SHOP,,,เมธาวี แย้มเมืองไชย,,,,,78 ห้างไทยวัสดุ ( แจ้งวัฒนะ) ชั้น 1 ห้อง 101 ต.บางตลาด อ.ปากเกร็ด จ.นนทบุรี,78 ห้างไทยวัสดุ ( แจ้งวัฒนะ) ชั้น 1 ห้อง 101 ต.บางตลาด อ.ปากเกร็ด จ.นนทบุรี,กรุงเทพฯ,,,,13.8850868,100.5504891,,,,,,active,admin,
B2302015,B2302015,Pink Paw Pet Shop,PET SHOP,,,ณัฐชยา ศิริเธียรไชย,,,,,248 ซ.สาทร 11 แยก12 ถ.สาทรใต้ แขวงยานนาวา เขตสาทร จ.กรุงเทพฯ 10120,248 ซ.สาทร 11 แยก12 ถ.สาทรใต้ แขวงยานนาวา เขตสาทร จ.กรุงเทพฯ 10120,กรุงเทพฯ,,,,13.719586,100.5230255,,10.00-17.00,,,,active,admin,
B2508002,B2508002,Poppet Petshop พ็อพเพ็ท เพ็ทช็อป (หาดใหญ่),PET SHOP,,,ชาตรี ไข่แก้ว,,,,,733/1 ถ.เพชรเกษม ต.หาดใหญ่ อ.หาดใหญ่ จ.สงขลา 90110,733/1 ถ.เพชรเกษม ต.หาดใหญ่ อ.หาดใหญ่ จ.สงขลา 90110,สงขลา,,,,,,,,,,,active,admin,
B2502025,B2502025,Poppet Petshop พ็อพเพ็ท เพ็ทช็อป (โกดัง),PET SHOP,,,ชาตรี ไข่แก้ว,,,,,115 ม.3 ต.โพธิ์เสด็จ อ.เมือง จ.นครศรีธรรมราช 80000,115 ม.3 ต.โพธิ์เสด็จ อ.เมือง จ.นครศรีธรรมราช 80000,นครศรีธรรมราช,,,,,,,,,,,active,admin,
B2205657,B2205657,Rainbow Cat - Cat hotel โรงแรมแมว & เพ็ทช็อป,PET SHOP,,,อรุณวดี กุลจรัสเดโช,,,,,97/24 ต.แสนสุข อ.เมือง จ.ชลบุรี,97/24 ต.แสนสุข อ.เมือง จ.ชลบุรี,ชลบุรี,,,,13.2847888,100.9180762,,10.00-17.00,,,DC บางพลี,active,admin,
B2410008,B2410008,Rexrimgaudas (เร็กซ์ริมกัวดัส),PET SHOP,,,บริษัท,,,,,88​/53​ มบ.เดอะแพ​ลนท์​แจ้งวัฒนะ​ ซ.​4 ม.​5 ถ.ติ​วา​นนท์ ต.​บ้าน​ใหม่​ อ.ปากเกร็ด จ.นนทบุรี​ 11120,88​/53​ มบ.เดอะแพ​ลนท์​แจ้งวัฒนะ​ ซ.​4 ม.​5 ถ.ติ​วา​นนท์ ต.​บ้าน​ใหม่​ อ.ปากเกร็ด จ.นนทบุรี​ 11120,นนทบุรี,,,,13.9308114,100.5391201,,,,,DC บางพลี,active,admin,
B2508013,B2508013,Rian Land Cattery (เหรียญแลนด์แคทเทอร์รี่),PET SHOP,,,บริษัท,,,,,หมู่บ้านชัยพฤกษ์ศรีนครินทร์ 129/282 ซ.6 ถ.ทรัพย์พัฒนา-แพรกษา ต.บางเมือง อ.เมือง จ.สมุทรปราการ 10270,หมู่บ้านชัยพฤกษ์ศรีนครินทร์ 129/282 ซ.6 ถ.ทรัพย์พัฒนา-แพรกษา ต.บางเมือง อ.เมือง จ.สมุทรปราการ 10270,สมุทรปราการ,,,,,,,,,,,active,admin,
B2205202,B2205202,Roger & Messi Pet Shop and Cat Hostel,PET SHOP,,,เมธาวี แย้มเมืองไชย,,,,,64/126-127 ม.1 ถ.บางกรวย-ไทรน้อย ต.บางกร่าง อ.เมืองนนทบุรี จ.นนทบุรี,64/126-127 ม.1 ถ.บางกรวย-ไทรน้อย ต.บางกร่าง อ.เมืองนนทบุรี จ.นนทบุรี,นนทบุรี,,,,13.8395466,100.4486366,,10.00-17.00,,,DC บางพลี,active,admin,
B2310024,B2310024,Rs Pet All สาขา 81 แบดมินตัน ฮอลล์,PET SHOP,,,ณัฐชยา ศิริเธียรไชย,,,,,81 ถ.เจริญราษฎร์ แขวงบางโคล่ เขตบางคอแหลม กรุงเทพฯ 10120,81 ถ.เจริญราษฎร์ แขวงบางโคล่ เขตบางคอแหลม กรุงเทพฯ 10120,กรุงเทพฯ,,,,13.694778,100.5127436,,10.00-17.00,,,,active,admin,
B2401002,B2401002,Rs Pet All สาขา The Grove หทัยราษฎร์,PET SHOP,,,ณิชากร อ่อนเทศ,,,,,88 ม.11 ถ.หทัยราษฎร์ ต.ลาดสวาย อ. ลำลูกกา จ.ปทุมธานี 12150,88 ม.11 ถ.หทัยราษฎร์ ต.ลาดสวาย อ. ลำลูกกา จ.ปทุมธานี 12150,กรุงเทพฯ,,,,13.9218557,100.6908639,,,,,,active,admin,
B2205280,B2205280,S.U. Pet center,PET SHOP,,,บุณยานุช นรมาตย์,,,,,179 ถ.ทรงพล ต.ลำพยา อ.เมือง จ.นครปฐม 73000,179 ถ.ทรงพล ต.ลำพยา อ.เมือง จ.นครปฐม 73000,นครปฐม,,,,13.8134805,100.0368293,,09.00-16.00,,,DC บางพลี,active,admin,
B2305013,B2305013,SIS PETMART สาขา คลอง 7,PET SHOP,,,ณิชากร อ่อนเทศ,,,,,39/7-8 ม.4 ต.บึงคำพร้อย อ.ลำลูกกา จ.ปทุมธานี,39/7-8 ม.4 ต.บึงคำพร้อย อ.ลำลูกกา จ.ปทุมธานี,ปทุมธานี,,,,13.9505678,100.7352179,,10.00-17.00,,,DC บางพลี,active,admin,
B2305014,B2305014,SIS PETMART สาขา คลอง 8,PET SHOP,,,ณิชากร อ่อนเทศ,,,,,193 ม.1 ต.ลำผักกูด อ.ธัญบุรี จ.ปทุมธานี 12110,193 ม.1 ต.ลำผักกูด อ.ธัญบุรี จ.ปทุมธานี 12110,ปทุมธานี,,,,14.0225251,100.763226,,10.00-17.00,,,DC บางพลี,active,admin,
B2307015,B2307015,SUNDEMORNING,FARM,,,บริษัท,,,,,บ.ปูนและวัสดุก่อสร้าง 1979 เลขที่ 327/1 ม.5 ถ.เศรษฐกิจ ต.บ้านสวน อ.เมืองชลบุรี จ.ชลบุรี 20000,บ.ปูนและวัสดุก่อสร้าง 1979 เลขที่ 327/1 ม.5 ถ.เศรษฐกิจ ต.บ้านสวน อ.เมืองชลบุรี จ.ชลบุรี 20000,ระยอง,,,,13.3570369,100.9967663,,,,,DC บางพลี,active,admin,
B2210068,B2210068,Seewi Pet Shop,PET SHOP,,,ณิชากร อ่อนเทศ,,,,,428/10 หมู่บ้านเดอะรีเจ้นท์ สตรีท ถ.พระยาสุเรนทร์ แขวงบางชัน เขตคลองสามวา จ.กรุงเทพฯ,428/10 หมู่บ้านเดอะรีเจ้นท์ สตรีท ถ.พระยาสุเรนทร์ แขวงบางชัน เขตคลองสามวา จ.กรุงเทพฯ,กรุงเทพฯ,,,,13.83131,100.69903,,10.00-17.00,,,,active,admin,
B2205560,B2205560,Shamu Shamu Pet Center สาขา ถลาง,PET SHOP,,,สุวภัทร เพ็งกลางเดือน,,,,,187/1 ม.1 ต.ศรีสุนทร อ.ถลาง จ.ภูเก็ต,187/1 ม.1 ต.ศรีสุนทร อ.ถลาง จ.ภูเก็ต,ภูเก็ต,,,,7.9893125,98.3663594,,09.30-16.30,,,HUB พุนพิน,active,admin,
B2205561,B2205561,Shamu Shamu Pet Center สาขา เจ้าฟ้า,PET SHOP,,,สุวภัทร เพ็งกลางเดือน,,,,,18/136-140 ม.3 ต.วิชิต อ.เมืองภูเก็ต จ.ภูเก็ต,18/136-140 ม.3 ต.วิชิต อ.เมืองภูเก็ต จ.ภูเก็ต,ภูเก็ต,,,,7.8695383,98.3726701,,09.30-16.30,,,HUB พุนพิน,active,admin,
B2205186,B2205186,Shinny Pet Shop สาขา นวมินทร์,PET SHOP,,,ศรัณยา ธรรมเที่ยง,,,,,629/1 ถ.นวมินทร์ แขวงนวลจันทร์ เขตบึงกุ่ม จ.กรุงเทพฯ,629/1 ถ.นวมินทร์ แขวงนวลจันทร์ เขตบึงกุ่ม จ.กรุงเทพฯ,กรุงเทพฯ,,,,13.8274796,100.6596656,,10.00-17.00,,,,active,admin,
B2205153,B2205153,Shinny Pet Shop สาขา สำเหร่,PET SHOP,,,ศรัณยา ธรรมเที่ยง,,,,,10-12 ซ.สมเด็จพระเจ้าตากสิน 19 แขวงสำเหร่ เขตธนบุรี จ.กรุงเทพฯ 10500,10-12 ซ.สมเด็จพระเจ้าตากสิน 19 แขวงสำเหร่ เขตธนบุรี จ.กรุงเทพฯ 10500,กรุงเทพฯ,,,,13.7126902,100.4889774,,10.00-17.00,,,,active,admin,
B2212015,B2212015,Sis petmart สาขา รังสิต,PET SHOP,,,ณิชากร อ่อนเทศ,,,,,"257/11 ซ.รังสิตนครนายก ถ.รังสิต-นครนายก
ต.ประชาธิปัตย์ อ.ธัญบุรี จ.ปทุมธานี 12130","257/11 ซ.รังสิตนครนายก ถ.รังสิต-นครนายก
ต.ประชาธิปัตย์ อ.ธัญบุรี จ.ปทุมธานี 12130",ปทุมธานี,,,,13.9926761,100.6242914,,10.00-17.00,,,DC บางพลี,active,admin,
B2405013,B2405013,Sis petmart สาขา ราชมงคลคลอง 6,PET SHOP,,,ณิชากร อ่อนเทศ,,,,,6/3 ม.2 ต.คลองหก อ.คลองหลวง จ.ปทุมธานี 12120,6/3 ม.2 ต.คลองหก อ.คลองหลวง จ.ปทุมธานี 12120,กรุงเทพฯ,,,,14.024719,100.6684818,,10.00-17.00,,,,active,admin,
